sysID,x1,x2,x3,x4,x5,x6,x7,x8,x9,x10,roll,pitch,yaw,gps0_lat,gps0_lon,gps0_alt,gps1_lat,gps1_lon,gps1_alt,gps2_lat,gps2_lon,gps2_alt,gps3_lat,gps3_lon,gps3_alt,gyro_x,gyro_y,gyro_z,accel_x,accel_y,accel_z,qt1,qt2,qt3,qt4,epoch,magVec1,magVec2,magVec3
2,-14294.2422147,-19545.0672875,-15596.8334067,6.53186582433,10.8581802244,-77.3061625623,nan,nan,nan,0.0,[],[],[],-37.81773116666667,144.94650783333333,1811.9,-37.81895183333334,144.95018433333334,0.9,-35.84156328,143.1362385,63.2729524,-35.96631476,143.3707744,64.82851725,0.0,0.0,0.0,0.0,0.0,9.81,0.0,0.0,1.0,0.0,1616657289.6543612,0.0,0.0,0.0
2,-15092.7466899,-20565.0875018,-15600.2339746,-12153.909289,-19701.2835379,-100.150191739,nan,nan,nan,0.0,[],[],[],-37.81773116666667,144.94650783333333,1811.9,-37.81895183333334,144.95018433333334,0.9,-35.84156328,143.1362385,63.2729524,-35.96631476,143.3707744,64.82851725,0.0,0.0,0.0,0.0,0.0,9.81,0.0,0.0,1.0,0.0,1616657289.755522,0.0,0.0,0.0
2,-15368.735303,-20821.706801,-15601.910301,-12896.8102815,-15775.3144774,-93.706252175,nan,nan,nan,0.0,[],[],[],-37.81774266666667,144.94654866666667,1801.5,-37.81895183333334,144.95018433333334,0.9,-35.84156328,143.1362385,63.2729524,-35.96631476,143.3707744,64.82851725,0.0,0.0,0.0,0.0,0.0,9.81,0.0,0.0,1.0,0.0,1616657289.877507,0.0,0.0,0.0
2,-15421.813816,-20911.9861568,-15602.6369578,-8331.2083723,-10631.401717,-73.1351669866,nan,nan,inf,0.0,[],[],[],-37.81774266666667,144.94654866666667,1801.5,-37.81895183333334,144.95018433333334,0.9,-35.84156328,143.1362385,63.2729524,-35.96631476,143.3707744,64.82851725,0.0,0.0,0.0,0.0,0.0,9.81,0.0,0.0,1.0,0.0,1616657289.9201016,0.0,0.0,0.0
2,-15430.1329961,-20927.9783652,-15602.8428805,-5482.19630472,-7068.14473713,-53.7614065601,nan,nan,inf,0.0,[],[],[],-37.81774266666667,144.94654866666667,1801.5,-37.81895183333334,144.95018433333334,0.9,-35.84156328,143.1362385,63.2729524,-35.96631476,143.3707744,64.82851725,0.0,0.0,0.0,0.0,0.0,9.81,0.0,0.0,1.0,0.0,1616657289.9600239,0.0,0.0,0.0
2,-15425.7938062,-20923.4799409,-15602.8361404,-3798.54460739,-4908.00158777,-39.4295849731,nan,nan,inf,0.0,[],[],[],-37.81774266666667,144.94654866666667,1801.5,-37.81895183333334,144.95018433333334,0.9,-35.84156328,143.1362385,63.2729524,-35.96631476,143.3707744,64.82851725,0.0,0.0,0.0,0.0,0.0,9.81,0.0,0.0,1.0,0.0,1616657290.004211,0.0,0.0,0.0
2,-15418.5043261,-20914.0633746,-15602.7575519,-2762.66063925,-3567.70173276,-29.3949278073,nan,nan,inf,0.0,[],[],[],-37.81774266666667,144.94654866666667,1801.5,-37.81895183333334,144.95018433333334,0.9,-35.84156328,143.1362385,63.2729524,-35.96631476,143.3707744,64.82851725,0.0,0.0,0.0,0.0,0.0,9.81,0.0,0.0,1.0,0.0,1616657290.042172,0.0,0.0,0.0
2,-15411.075624,-20904.2035234,-15602.6608592,-2090.87880564,-2696.33345546,-22.3390590823,nan,nan,inf,0.0,[],[],[],-37.81774266666667,144.94654866666667,1801.5,-37.81895183333334,144.95018433333334,0.9,-35.84156328,143.1362385,63.2729524,-35.96631476,143.3707744,64.82851725,0.0,0.0,0.0,0.0,0.0,9.81,0.0,0.0,1.0,0.0,1616657290.0881205,0.0,0.0,0.0
2,-15404.2911741,-20895.1442363,-15602.5649457,-1633.97124409,-2103.54326296,-17.2621820936,nan,nan,-inf,0.0,[],[],[],-37.81774266666667,144.94654866666667,1801.5,-37.81895183333334,144.95018433333334,0.9,-35.84156328,143.1362385,63.2729524,-35.96631476,143.3707744,64.82851725,0.0,0.0,0.0,0.0,0.0,9.81,0.0,0.0,1.0,0.0,1616657290.1350265,0.0,0.0,0.0
2,-15398.3052712,-20887.1453213,-15602.4756785,-1310.44552793,-1684.08412212,-13.5065349453,nan,nan,-inf,0.0,[],[],[],-37.81774266666667,144.94654866666667,1801.5,-37.81895183333334,144.95018433333334,0.9,-35.84156328,143.1362385,63.2729524,-35.96631476,143.3707744,64.82851725,0.0,0.0,0.0,0.0,0.0,9.81,0.0,0.0,1.0,0.0,1616657290.1791177,0.0,0.0,0.0
2,-15393.0771912,-20880.1651585,-15602.3941839,-1073.53839995,-1377.23818713,-10.6508459252,nan,nan,-inf,0.0,[],[],[],-37.81774266666667,144.94654866666667,1801.5,-37.81895183333334,144.95018433333334,0.9,-35.84156328,143.1362385,63.2729524,-35.96631476,143.3707744,64.82851725,0.0,0.0,0.0,0.0,0.0,9.81,0.0,0.0,1.0,0.0,1616657290.2287903,0.0,0.0,0.0
2,-15388.5138,-20874.0804439,-15602.3199456,-895.109479091,-1146.3869002,-8.42315295463,nan,nan,-inf,0.0,[],[],[],-37.81774266666667,144.94654866666667,1801.5,-37.81895183333334,144.95018433333334,0.9,-35.84156328,143.1362385,63.2729524,-35.96631476,143.3707744,64.82851725,0.0,0.0,0.0,0.0,0.0,9.81,0.0,0.0,1.0,0.0,1616657290.2734823,0.0,0.0,0.0
2,-15384.5170645,-20868.758342,-15602.2519689,-757.492313783,-968.525199234,-6.64442068101,nan,nan,-inf,0.0,[],[],[],-37.81774266666667,144.94654866666667,1801.5,-37.81895183333334,144.95018433333334,0.9,-35.84156328,143.1362385,63.2729524,-35.96631476,143.3707744,64.82851725,0.0,0.0,0.0,0.0,0.0,9.81,0.0,0.0,1.0,0.0,1616657290.3155851,0.0,0.0,0.0
2,-15380.9988525,-20864.0788351,-15602.1892111,-649.178231881,-828.667686803,-5.19407550194,nan,nan,-inf,0.0,[],[],[],-37.81774266666667,144.94654866666667,1801.5,-37.81895183333334,144.95018433333334,0.9,-35.84156328,143.1362385,63.2729524,-35.96631476,143.3707744,64.82851725,0.0,0.0,0.0,0.0,0.0,9.81,0.0,0.0,1.0,0.0,1616657290.3609035,0.0,0.0,0.0
2,-15377.884241,-20859.9398381,-15602.1307297,-562.425077634,-716.738078174,-3.98905325058,nan,nan,-inf,0.0,[],[],[],-37.81774266666667,144.94654866666667,1801.5,-37.81895183333334,144.95018433333334,0.9,-35.84156328,143.1362385,63.2729524,-35.96631476,143.3707744,64.82851725,0.0,0.0,0.0,0.0,0.0,9.81,0.0,0.0,1.0,0.0,1616657290.4010644,0.0,0.0,0.0
2,-15375.1109143,-20856.2565112,-15602.0757217,-491.876526768,-625.769925799,-2.97090040511,nan,nan,-inf,0.0,[],[],[],-37.81774266666667,144.94654866666667,1801.5,-37.81895183333334,144.95018433333334,0.9,-35.84156328,143.1362385,63.2729524,-35.96631476,143.3707744,64.82851725,0.0,0.0,0.0,0.0,0.0,9.81,0.0,0.0,1.0,0.0,1616657290.4397397,0.0,0.0,0.0
2,-15372.6274239,-20852.9588877,-15602.0235218,-433.734792603,-550.827666853,-2.09767884287,nan,nan,-inf,0.0,[],[],[],-37.81774266666667,144.94654866666667,1801.5,-37.81895183333334,144.95018433333334,0.9,-35.84156328,143.1362385,63.2729524,-35.96631476,143.3707744,64.82851725,0.0,0.0,0.0,0.0,0.0,9.81,0.0,0.0,1.0,0.0,1616657290.4844933,0.0,0.0,0.0
2,-15370.3913128,-20849.9892896,-15601.9735877,-385.248270422,-488.338301909,-1.33877573152,nan,nan,-inf,0.0,[],[],[],-37.81774266666667,144.94654866666667,1801.5,-37.81895183333334,144.95018433333334,0.9,-35.84156328,143.1362385,63.2729524,-35.96631476,143.3707744,64.82851725,0.0,0.0,0.0,0.0,0.0,9.81,0.0,0.0,1.0,0.0,1616657290.536291,0.0,0.0,0.0
2,-15368.3674359,-20847.3000129,-15601.9254823,-344.384752467,-435.665226877,-0.671503957406,nan,nan,-inf,0.0,[],[],[],-37.81774266666667,144.94654866666667,1801.5,-37.81895183333334,144.95018433333334,0.9,-35.84156328,143.1362385,63.2729524,-35.96631476,143.3707744,64.82851725,0.0,0.0,0.0,0.0,0.0,9.81,0.0,0.0,1.0,0.0,1616657290.5781968,0.0,0.0,0.0
2,-15366.5265569,-20844.8513986,-15601.8788573,-309.617454032,-390.829316279,-0.0788289190592,nan,nan,-inf,0.0,[],[],[],-37.8177545,144.94659166666668,1790.2,-37.81895183333334,144.95018433333334,0.9,-35.84156328,143.1362385,63.2729524,-35.96631476,143.3707744,64.82851725,0.0,0.0,0.0,0.0,0.0,9.81,0.0,0.0,1.0,0.0,1616657290.6299086,0.0,0.0,0.0
2,-15364.3538688,-20842.6044941,-15601.8334383,-277.978118719,-352.288041064,0.452214701853,nan,nan,inf,0.0,[],[],[],-37.8177545,144.94659166666668,1790.2,-37.81895016666667,144.9501815,1.5,-35.84156328,143.1362385,63.2729524,-35.96631476,143.3707744,64.82851725,0.0,0.0,0.0,0.0,0.0,9.81,0.0,0.0,1.0,0.0,1616657290.673529,0.0,0.0,0.0
2,-15362.4711288,-20840.5088205,-15601.8316238,-251.10492117,-318.817087263,0.782908580397,nan,nan,inf,0.0,[],[],[],-37.8177545,144.94659166666668,1790.2,-37.81895016666667,144.9501815,1.5,-35.84156328,143.1362385,63.2729524,-35.96631476,143.3707744,64.82851725,0.0,0.0,0.0,0.0,0.0,9.81,0.0,0.0,1.0,0.0,1616657290.7154608,0.0,0.0,0.0
2,-15360.7786194,-20838.5682917,-15601.8244878,-227.906879267,-289.611236306,1.10646564978,nan,nan,inf,0.0,[],[],[],-37.8177545,144.94659166666668,1790.2,-37.81895016666667,144.9501815,1.5,-35.84156328,143.1362385,63.2729524,-35.96631476,143.3707744,64.82851725,0.0,0.0,0.0,0.0,0.0,9.81,0.0,0.0,1.0,0.0,1616657290.7541711,0.0,0.0,0.0
2,-15359.2453042,-20836.7640729,-15601.8129705,-207.722674774,-263.949692209,1.41996427898,nan,nan,inf,0.0,[],[],[],-37.8177545,144.94659166666668,1790.2,-37.81895016666667,144.9501815,1.5,-35.84156328,143.1362385,63.2729524,-35.96631476,143.3707744,64.82851725,0.0,0.0,0.0,0.0,0.0,9.81,0.0,0.0,1.0,0.0,1616657290.799483,0.0,0.0,0.0
2,-15357.8464373,-20835.0796381,-15601.7978452,-190.033651954,-241.254886387,1.72142178069,nan,nan,inf,0.0,[],[],[],-37.8177545,144.94659166666668,1790.2,-37.81895016666667,144.9501815,1.5,-35.84156328,143.1362385,63.2729524,-35.96631476,143.3707744,64.82851725,0.0,0.0,0.0,0.0,0.0,9.81,0.0,0.0,1.0,0.0,1616657290.8466847,0.0,0.0,0.0
2,-15356.5620097,-20833.5004849,-15601.7797607,-174.428008825,-221.060025307,2.00946892078,nan,nan,inf,0.0,[],[],[],-37.8177545,144.94659166666668,1790.2,-37.81895016666667,144.9501815,1.5,-35.84156328,143.1362385,63.2729524,-35.96631476,143.3707744,64.82851725,0.0,0.0,0.0,0.0,0.0,9.81,0.0,0.0,1.0,0.0,1616657290.8870413,0.0,0.0,0.0
2,-15355.3756237,-20832.0138768,-15601.7592717,-160.575039912,-202.984902255,2.28313719106,nan,nan,inf,0.0,[],[],[],-37.8177545,144.94659166666668,1790.2,-37.81895016666667,144.9501815,1.5,-35.84156328,143.1362385,63.2729524,-35.96631476,143.3707744,64.82851725,0.0,0.0,0.0,0.0,0.0,9.81,0.0,0.0,1.0,0.0,1616657290.926586,0.0,0.0,0.0
2,-15354.2736659,-20830.6086186,-15601.7368619,-148.206314381,-186.717677982,2.5417205148,nan,nan,inf,0.0,[],[],[],-37.8177545,144.94659166666668,1790.2,-37.81895016666667,144.9501815,1.5,-35.84156328,143.1362385,63.2729524,-35.96631476,143.3707744,64.82851725,0.0,0.0,0.0,0.0,0.0,9.81,0.0,0.0,1.0,0.0,1616657290.9647639,0.0,0.0,0.0
2,-15353.2446883,-20829.2748652,-15601.7129612,-137.101717203,-172.001021597,2.78468680569,nan,nan,inf,0.0,[],[],[],-37.8177545,144.94659166666668,1790.2,-37.81895016666667,144.9501815,1.5,-35.84156328,143.1362385,63.2729524,-35.96631476,143.3707744,64.82851725,0.0,0.0,0.0,0.0,0.0,9.81,0.0,0.0,1.0,0.0,1616657291.0079918,0.0,0.0,0.0
2,-15352.2789397,-20828.0039616,-15601.6879584,-127.078954169,-158.621469789,3.0116233639,nan,nan,inf,0.0,[],[],[],-37.8177545,144.94659166666668,1790.2,-37.81895016666667,144.9501815,1.5,-35.84156328,143.1362385,63.2729524,-35.96631476,143.3707744,64.82851725,0.0,0.0,0.0,0.0,0.0,9.81,0.0,0.0,1.0,0.0,1616657291.056457,0.0,0.0,0.0
2,-15351.3680037,-20826.7883098,-15601.6622101,-117.98556411,-146.401183181,3.22220548554,nan,nan,inf,0.0,[],[],[],-37.8177545,144.94659166666668,1790.2,-37.81895016666667,144.9501815,1.5,-35.84156328,143.1362385,63.2729524,-35.96631476,143.3707744,64.82851725,0.0,0.0,0.0,0.0,0.0,9.81,0.0,0.0,1.0,0.0,1616657291.1041994,0.0,0.0,0.0
2,-15350.5045165,-20825.6212599,-15601.6360476,-109.692778419,-135.191501402,3.41618108569,nan,nan,inf,0.0,[],[],[],-37.8177545,144.94659166666668,1790.2,-37.81895016666667,144.9501815,1.5,-35.84156328,143.1362385,63.2729524,-35.96631476,143.3707744,64.82851725,0.0,0.0,0.0,0.0,0.0,9.81,0.0,0.0,1.0,0.0,1616657291.1440604,0.0,0.0,0.0
2,-15349.6819448,-20824.4970199,-15601.6097808,-102.090770983,-124.867854715,3.59336632514,nan,nan,inf,0.0,[],[],[],-37.8177545,144.94659166666668,1790.2,-37.81895016666667,144.9501815,1.5,-35.84156328,143.1362385,63.2729524,-35.96631476,143.3707744,64.82851725,0.0,0.0,0.0,0.0,0.0,9.81,0.0,0.0,1.0,0.0,1616657291.18325,0.0,0.0,0.0
2,-15348.8944114,-20823.4105803,-15601.5837014,-95.0849830225,-115.325700803,3.75364864595,nan,nan,inf,0.0,[],[],[],-37.8177545,144.94659166666668,1790.2,-37.81895016666667,144.9501815,1.5,-35.84156328,143.1362385,63.2729524,-35.96631476,143.3707744,64.82851725,0.0,0.0,0.0,0.0,0.0,9.81,0.0,0.0,1.0,0.0,1616657291.2249815,0.0,0.0,0.0
2,-15348.1365619,-20822.3576502,-15601.5580839,-88.5933065578,-106.477235128,3.89699455802,nan,nan,inf,0.0,[],[],[],-37.8177545,144.94659166666668,1790.2,-37.81895016666667,144.9501815,1.5,-35.84156328,143.1362385,63.2729524,-35.96631476,143.3707744,64.82851725,0.0,0.0,0.0,0.0,0.0,9.81,0.0,0.0,1.0,0.0,1616657291.265908,0.0,0.0,0.0
2,-15347.4034686,-20821.3345986,-15601.5331855,-82.5439787,-98.2486821012,4.02346017666,nan,nan,inf,0.0,[],[],[],-37.8177545,144.94659166666668,1790.2,-37.81895016666667,144.9501815,1.5,-35.84156328,143.1362385,63.2729524,-35.96631476,143.3707744,64.82851725,0.0,0.0,0.0,0.0,0.0,9.81,0.0,0.0,1.0,0.0,1616657291.305196,0.0,0.0,0.0
2,-15346.6905711,-20820.3383994,-15601.5092461,-76.8740826846,-90.5780197238,4.1332030215,nan,nan,inf,0.0,[],[],[],-37.8177545,144.94659166666668,1790.2,-37.81895016666667,144.9501815,1.5,-35.84156328,143.1362385,63.2729524,-35.96631476,143.3707744,64.82851725,0.0,0.0,0.0,0.0,0.0,9.81,0.0,0.0,1.0,0.0,1616657291.345046,0.0,0.0,0.0
2,-15345.9936544,-20819.3665745,-15601.4864861,-71.52857343,-83.4130275893,4.22649403049,nan,nan,inf,0.0,[],[],[],-37.8177545,144.94659166666668,1790.2,-37.81895016666667,144.9501815,1.5,-35.84156328,143.1362385,63.2729524,-35.96631476,143.3707744,64.82851725,0.0,0.0,0.0,0.0,0.0,9.81,0.0,0.0,1.0,0.0,1616657291.386627,0.0,0.0,0.0
2,-15345.3088622,-20818.4171344,-15601.4651047,-66.459747278,-76.7095809121,4.30372915268,nan,nan,inf,0.0,[],[],[],-37.8177545,144.94659166666668,1790.2,-37.81895016666667,144.9501815,1.5,-35.84156328,143.1362385,63.2729524,-35.96631476,143.3707744,64.82851725,0.0,0.0,0.0,0.0,0.0,9.81,0.0,0.0,1.0,0.0,1616657291.4280114,0.0,0.0,0.0
2,-15344.632746,-20817.4885141,-15601.4452777,-61.6270603841,-70.430143376,4.36544024486,nan,nan,inf,0.0,[],[],[],-37.8177545,144.94659166666668,1790.2,-37.81895016666667,144.9501815,1.5,-35.84156328,143.1362385,63.2729524,-35.96631476,143.3707744,64.82851725,0.0,0.0,0.0,0.0,0.0,9.81,0.0,0.0,1.0,0.0,1616657291.4677289,0.0,0.0,0.0
2,-15343.9623397,-20816.5795067,-15601.427154,-56.9971739985,-64.5424389638,4.41230525393,nan,nan,inf,0.0,[],[],[],-37.8177545,144.94659166666668,1790.2,-37.81895016666667,144.9501815,1.5,-35.84156328,143.1362385,63.2729524,-35.96631476,143.3707744,64.82851725,0.0,0.0,0.0,0.0,0.0,9.81,0.0,0.0,1.0,0.0,1616657291.5073738,0.0,0.0,0.0
2,-15343.2952503,-20815.6891956,-15601.4108532,-52.5440777658,-59.0183054421,4.44515774204,nan,nan,inf,0.0,[],[],[],-37.8177545,144.94659166666668,1790.2,-37.81895016666667,144.9501815,1.5,-35.84156328,143.1362385,63.2729524,-35.96631476,143.3707744,64.82851725,0.0,0.0,0.0,0.0,0.0,9.81,0.0,0.0,1.0,0.0,1616657291.545564,0.0,0.0,0.0
2,-15342.6297471,-20814.8168925,-15601.3964614,-48.2491273829,-53.8327464419,4.46499564595,nan,nan,inf,0.0,[],[],[],-37.8177545,144.94659166666668,1790.2,-37.81895016666667,144.9501815,1.5,-35.84156328,143.1362385,63.2729524,-35.96631476,143.3707744,64.82851725,0.0,0.0,0.0,0.0,0.0,9.81,0.0,0.0,1.0,0.0,1616657291.584555,0.0,0.0,0.0
2,-15341.9648306,-20813.9620841,-15601.384028,-44.1008433892,-48.9632017858,4.47298875623,nan,nan,inf,0.0,[],[],[],-37.8177545,144.94659166666668,1790.2,-37.81894716666667,144.9501755,1.6,-35.84156328,143.1362385,63.2729524,-35.96631476,143.3707744,64.82851725,0.0,0.0,0.0,0.0,0.0,9.81,0.0,0.0,1.0,0.0,1616657291.6248913,0.0,0.0,0.0
2,-15341.3791783,-20813.0916273,-15601.419337,-40.4675277133,-44.2340739248,4.39120388217,nan,nan,inf,0.0,[],[],[],-37.8177545,144.94659166666668,1790.2,-37.81894716666667,144.9501755,1.6,-35.84156328,143.1362385,63.2729524,-35.96631476,143.3707744,64.82851725,0.0,0.0,0.0,0.0,0.0,9.81,0.0,0.0,1.0,0.0,1616657291.6702905,0.0,0.0,0.0
2,-15340.7840757,-20812.2419877,-15601.4531768,-36.8988230429,-39.8134650475,4.31074885636,nan,nan,inf,0.0,[],[],[],-37.8177545,144.94659166666668,1790.2,-37.81894716666667,144.9501755,1.6,-35.84156328,143.1362385,63.2729524,-35.96631476,143.3707744,64.82851725,0.0,0.0,0.0,0.0,0.0,9.81,0.0,0.0,1.0,0.0,1616657291.7113812,0.0,0.0,0.0
2,-15340.180889,-20811.4129502,-15601.4857626,-33.4043213957,-35.6817438973,4.23203742804,nan,nan,inf,0.0,[],[],[],-37.817764,144.94663116666666,1778.5,-37.81894716666667,144.9501755,1.6,-35.84156328,143.1362385,63.2729524,-35.96631476,143.3707744,64.82851725,0.0,0.0,0.0,0.0,0.0,9.81,0.0,0.0,1.0,0.0,1616657291.7517574,0.0,0.0,0.0
2,-15339.2127682,-20810.6367942,-15601.5185068,-28.3843852844,-32.1785233104,4.14436745841,nan,nan,inf,0.0,[],[],[],-37.817764,144.94663116666666,1778.5,-37.81894716666667,144.9501755,1.6,-35.84156328,143.1362385,63.2729524,-35.96631476,143.3707744,64.82851725,0.0,0.0,0.0,0.0,0.0,9.81,0.0,0.0,1.0,0.0,1616657291.7991607,0.0,0.0,0.0
2,-15338.2877493,-20809.8697493,-15601.5504692,-23.8294864174,-28.8156729104,4.05924040353,nan,nan,inf,0.0,[],[],[],-37.817764,144.94663116666666,1778.5,-37.81894716666667,144.9501755,1.6,-35.84156328,143.1362385,63.2729524,-35.96631476,143.3707744,64.82851725,0.0,0.0,0.0,0.0,0.0,9.81,0.0,0.0,1.0,0.0,1616657291.842663,0.0,0.0,0.0
2,-15337.4071935,-20809.1122336,-15601.5815873,-19.7228169711,-25.5902900918,3.97839518518,nan,nan,inf,0.0,[],[],[],-37.817764,144.94663116666666,1778.5,-37.81894716666667,144.9501755,1.6,-35.84156328,143.1362385,63.2729524,-35.96631476,143.3707744,64.82851725,0.0,0.0,0.0,0.0,0.0,9.81,0.0,0.0,1.0,0.0,1616657291.882932,0.0,0.0,0.0
2,-15336.571573,-20808.3651897,-15601.6117237,-16.040955071,-22.5029214441,3.9037347758,nan,nan,inf,0.0,[],[],[],-37.817764,144.94663116666666,1778.5,-37.81894716666667,144.9501755,1.6,-35.84156328,143.1362385,63.2729524,-35.96631476,143.3707744,64.82851725,0.0,0.0,0.0,0.0,0.0,9.81,0.0,0.0,1.0,0.0,1616657291.9216712,0.0,0.0,0.0
2,-15335.7805606,-20807.6299793,-15601.6406759,-12.7555836048,-19.5565270193,3.83724619608,nan,nan,inf,0.0,[],[],[],-37.817764,144.94663116666666,1778.5,-37.81894716666667,144.9501755,1.6,-35.84156328,143.1362385,63.2729524,-35.96631476,143.3707744,64.82851725,0.0,0.0,0.0,0.0,0.0,9.81,0.0,0.0,1.0,0.0,1616657291.9600794,0.0,0.0,0.0
2,-15335.0331841,-20806.9082617,-15601.6681864,-9.83542785737,-16.7554386258,3.78092719831,nan,nan,inf,0.0,[],[],[],-37.817764,144.94663116666666,1778.5,-37.81894716666667,144.9501755,1.6,-35.84156328,143.1362385,63.2729524,-35.96631476,143.3707744,64.82851725,0.0,0.0,0.0,0.0,0.0,9.81,0.0,0.0,1.0,0.0,1616657291.998426,0.0,0.0,0.0
2,-15334.3280064,-20806.2018719,-15601.6939531,-7.2481036083,-14.1044194576,3.73672161948,nan,nan,inf,0.0,[],[],[],-37.817764,144.94663116666666,1778.5,-37.81894716666667,144.9501755,1.6,-35.84156328,143.1362385,63.2729524,-35.96631476,143.3707744,64.82851725,0.0,0.0,0.0,0.0,0.0,9.81,0.0,0.0,1.0,0.0,1616657292.037411,0.0,0.0,0.0
2,-15333.663303,-20805.5127073,-15601.7176399,-4.96166539779,-11.6078957073,3.70646428336,nan,nan,inf,0.0,[],[],[],-37.817764,144.94663116666666,1778.5,-37.81894716666667,144.9501755,1.6,-35.84156328,143.1362385,63.2729524,-35.96631476,143.3707744,64.82851725,0.0,0.0,0.0,0.0,0.0,9.81,0.0,0.0,1.0,0.0,1616657292.0785537,0.0,0.0,0.0
2,-15333.0372153,-20804.8426305,-15601.7388873,-2.94575155682,-9.26939125054,3.69183554273,nan,nan,inf,0.0,[],[],[],-37.817764,144.94663116666666,1778.5,-37.81894716666667,144.9501755,1.6,-35.84156328,143.1362385,63.2729524,-35.96631476,143.3707744,64.82851725,0.0,0.0,0.0,0.0,0.0,9.81,0.0,0.0,1.0,0.0,1616657292.117927,0.0,0.0,0.0
2,-15332.4478682,-20804.1933912,-15601.7573219,-1.17231312679,-7.09116331448,3.69432510501,nan,nan,inf,0.0,[],[],[],-37.817764,144.94663116666666,1778.5,-37.81894716666667,144.9501755,1.6,-35.84156328,143.1362385,63.2729524,-35.96631476,143.3707744,64.82851725,0.0,0.0,0.0,0.0,0.0,9.81,0.0,0.0,1.0,0.0,1616657292.1599035,0.0,0.0,0.0
2,-15331.8934502,-20803.5665691,-15601.7725663,0.384024465628,-5.07401471783,3.71520460294,nan,nan,inf,0.0,[],[],[],-37.817764,144.94663116666666,1778.5,-37.81894716666667,144.9501755,1.6,-35.84156328,143.1362385,63.2729524,-35.96631476,143.3707744,64.82851725,0.0,0.0,0.0,0.0,0.0,9.81,0.0,0.0,1.0,0.0,1616657292.2055225,0.0,0.0,0.0
2,-15331.3722602,-20802.9635339,-15601.7842473,1.74588634423,-3.2172470686,3.75550833997,nan,nan,inf,0.0,[],[],[],-37.817764,144.94663116666666,1778.5,-37.81894716666667,144.9501755,1.6,-35.84156328,143.1362385,63.2729524,-35.96631476,143.3707744,64.82851725,0.0,0.0,0.0,0.0,0.0,9.81,0.0,0.0,1.0,0.0,1616657292.2500877,0.0,0.0,0.0
2,-15330.8827262,-20802.385422,-15601.7920047,2.93327151762,-1.51871697016,3.81602165969,nan,nan,inf,0.0,[],[],[],-37.817764,144.94663116666666,1778.5,-37.81894716666667,144.9501755,1.6,-35.84156328,143.1362385,63.2729524,-35.96631476,143.3707744,64.82851725,0.0,0.0,0.0,0.0,0.0,9.81,0.0,0.0,1.0,0.0,1616657292.2919374,0.0,0.0,0.0
2,-15330.4234053,-20801.8331262,-15601.7954975,3.9637946318,0.0250393338077,3.89727639274,nan,nan,inf,0.0,[],[],[],-37.817764,144.94663116666666,1778.5,-37.81894716666667,144.9501755,1.6,-35.84156328,143.1362385,63.2729524,-35.96631476,143.3707744,64.82851725,0.0,0.0,0.0,0.0,0.0,9.81,0.0,0.0,1.0,0.0,1616657292.3318186,0.0,0.0,0.0
2,-15329.9929706,-20801.3072952,-15601.7944108,4.8529823202,1.41864124559,3.99955279976,nan,nan,inf,0.0,[],[],[],-37.817764,144.94663116666666,1778.5,-37.81894716666667,144.9501755,1.6,-35.84156328,143.1362385,63.2729524,-35.96631476,143.3707744,64.82851725,0.0,0.0,0.0,0.0,0.0,9.81,0.0,0.0,1.0,0.0,1616657292.3711784,0.0,0.0,0.0
2,-15329.5901924,-20800.8083402,-15601.7884605,5.61457852509,2.66768050505,4.12288735694,nan,nan,inf,0.0,[],[],[],-37.817764,144.94663116666666,1778.5,-37.81894716666667,144.9501755,1.6,-35.84156328,143.1362385,63.2729524,-35.96631476,143.3707744,64.82851725,0.0,0.0,0.0,0.0,0.0,9.81,0.0,0.0,1.0,0.0,1616657292.4161873,0.0,0.0,0.0
2,-15329.2139171,-20800.3364479,-15601.7773974,6.26082978718,3.77853443623,4.26708564031,nan,nan,inf,0.0,[],[],[],-37.817764,144.94663116666666,1778.5,-37.81894716666667,144.9501755,1.6,-35.84156328,143.1362385,63.2729524,-35.96631476,143.3707744,64.82851725,0.0,0.0,0.0,0.0,0.0,9.81,0.0,0.0,1.0,0.0,1616657292.4550884,0.0,0.0,0.0
2,-15328.8630468,-20799.8915964,-15601.7610103,6.8027348508,4.75818572308,4.4317394787,nan,nan,inf,0.0,[],[],[],-37.817764,144.94663116666666,1778.5,-37.81894716666667,144.9501755,1.6,-35.84156328,143.1362385,63.2729524,-35.96631476,143.3707744,64.82851725,0.0,0.0,0.0,0.0,0.0,9.81,0.0,0.0,1.0,0.0,1616657292.4960115,0.0,0.0,0.0
2,-15328.536522,-20799.4735738,-15601.7391275,7.25025261173,5.61405477995,4.61624748215,nan,nan,-inf,0.0,[],[],[],-37.817764,144.94663116666666,1778.5,-37.81894716666667,144.9501755,1.6,-35.84156328,143.1362385,63.2729524,-35.96631476,143.3707744,64.82851725,0.0,0.0,0.0,0.0,0.0,9.81,0.0,0.0,1.0,0.0,1616657292.5345829,0.0,0.0,0.0
2,-15328.2333084,-20799.0819984,-15601.711618,7.61246878855,6.35384801186,4.81983802413,nan,nan,-inf,0.0,[],[],[],-37.817764,144.94663116666666,1778.5,-37.81894716666667,144.9501755,1.6,-35.84156328,143.1362385,63.2729524,-35.96631476,143.3707744,64.82851725,0.0,0.0,0.0,0.0,0.0,9.81,0.0,0.0,1.0,0.0,1616657292.5735803,0.0,0.0,0.0
2,-15327.9523864,-20798.7163393,-15601.6783911,7.89772538978,6.98542339496,5.0415937684,nan,nan,-inf,0.0,[],[],[],-37.817764,144.94663116666666,1778.5,-37.81894716666667,144.9501755,1.6,-35.84156328,143.1362385,63.2729524,-35.96631476,143.3707744,64.82851725,0.0,0.0,0.0,0.0,0.0,9.81,0.0,0.0,1.0,0.0,1616657292.6139395,0.0,0.0,0.0
2,-15327.692745,-20798.3759367,-15601.6393955,8.11371879982,7.51667361164,5.28047688066,nan,nan,-inf,0.0,[],[],[],-37.817764,144.94663116666666,1778.5,-37.81894716666667,144.9501755,1.6,-35.84156328,143.1362385,63.2729524,-35.96631476,143.3707744,64.82851725,0.0,0.0,0.0,0.0,0.0,9.81,0.0,0.0,1.0,0.0,1616657292.65245,0.0,0.0,0.0
2,-15327.4533787,-20798.0600224,-15601.5946177,8.26757276026,7.95542623921,5.53535414786,nan,nan,-inf,0.0,[],[],[],-37.817764,144.94663116666666,1778.5,-37.81894716666667,144.9501755,1.6,-35.84156328,143.1362385,63.2729524,-35.96631476,143.3707744,64.82851725,0.0,0.0,0.0,0.0,0.0,9.81,0.0,0.0,1.0,0.0,1616657292.6921682,0.0,0.0,0.0
2,-15327.2332864,-20797.7677389,-15601.54408,8.36589218827,8.30936006127,5.80502133347,nan,nan,-inf,0.0,[],[],[],-37.817764,144.94663116666666,1778.5,-37.81894533333333,144.950172,1.5,-35.84156328,143.1362385,63.2729524,-35.96631476,143.3707744,64.82851725,0.0,0.0,0.0,0.0,0.0,9.81,0.0,0.0,1.0,0.0,1616657292.732023,0.0,0.0,0.0
2,-15326.8057521,-20797.5176864,-15601.5104255,9.23411694649,8.44231162237,6.04050135235,nan,nan,inf,0.0,[],[],[],-37.817774666666665,144.946662,1769.8,-37.81894533333333,144.950172,1.5,-35.84156328,143.1362385,63.2729524,-35.96631476,143.3707744,64.82851725,0.0,0.0,0.0,0.0,0.0,9.81,0.0,0.0,1.0,0.0,1616657292.7716825,0.0,0.0,0.0
2,-15326.4318838,-20797.2807748,-15601.470015,9.85279584484,8.56049081285,6.29363263571,nan,nan,inf,0.0,[],[],[],-37.817774666666665,144.946662,1769.8,-37.81894533333333,144.950172,1.5,-35.84156328,143.1362385,63.2729524,-35.96631476,143.3707744,64.82851725,0.0,0.0,0.0,0.0,0.0,9.81,0.0,0.0,1.0,0.0,1616657292.8097022,0.0,0.0,0.0
2,-15326.1049207,-20797.0577605,-15601.4229887,10.2696348857,8.65713119446,6.56268812128,nan,nan,inf,0.0,[],[],[],-37.817774666666665,144.946662,1769.8,-37.81894533333333,144.950172,1.5,-35.84156328,143.1362385,63.2729524,-35.96631476,143.3707744,64.82851725,0.0,0.0,0.0,0.0,0.0,9.81,0.0,0.0,1.0,0.0,1616657292.8486543,0.0,0.0,0.0
2,-15325.8190172,-20796.8490723,-15601.3695139,10.5237235262,8.72797618781,6.84597304271,nan,nan,inf,0.0,[],[],[],-37.817774666666665,144.946662,1769.8,-37.81894533333333,144.950172,1.5,-35.84156328,143.1362385,63.2729524,-35.96631476,143.3707744,64.82851725,0.0,0.0,0.0,0.0,0.0,9.81,0.0,0.0,1.0,0.0,1616657292.8875225,0.0,0.0,0.0
2,-15325.5691184,-20796.6548695,-15601.3097806,10.6470622151,8.77070939822,7.14184210758,nan,nan,inf,0.0,[],[],[],-37.817774666666665,144.946662,1769.8,-37.81894533333333,144.950172,1.5,-35.84156328,143.1362385,63.2729524,-35.96631476,143.3707744,64.82851725,0.0,0.0,0.0,0.0,0.0,9.81,0.0,0.0,1.0,0.0,1616657292.9293747,0.0,0.0,0.0
2,-15325.3508495,-20796.4750939,-15601.243997,10.665833989,8.78448926581,7.44871273003,nan,nan,inf,0.0,[],[],[],-37.817774666666665,144.946662,1769.8,-37.81894533333333,144.950172,1.5,-35.84156328,143.1362385,63.2729524,-35.96631476,143.3707744,64.82851725,0.0,0.0,0.0,0.0,0.0,9.81,0.0,0.0,1.0,0.0,1616657292.9685545,0.0,0.0,0.0
2,-15325.1604182,-20796.3095133,-15601.1723858,10.6014559089,8.76957275111,7.76507497669,nan,nan,-inf,0.0,[],[],[],-37.817774666666665,144.946662,1769.8,-37.81894533333333,144.950172,1.5,-35.84156328,143.1362385,63.2729524,-35.96631476,143.3707744,64.82851725,0.0,0.0,0.0,0.0,0.0,9.81,0.0,0.0,1.0,0.0,1616657293.0079138,0.0,0.0,0.0
2,-15324.9945306,-20796.1577597,-15601.0951807,10.4714442205,8.72701395629,8.08949873532,nan,nan,-inf,0.0,[],[],[],-37.817774666666665,144.946662,1769.8,-37.81894533333333,144.950172,1.5,-35.84156328,143.1362385,63.2729524,-35.96631476,143.3707744,64.82851725,0.0,0.0,0.0,0.0,0.0,9.81,0.0,0.0,1.0,0.0,1616657293.0492716,0.0,0.0,0.0
2,-15324.8503191,-20796.0193616,-15601.0126235,10.2901235209,8.65842497396,8.42063856629,nan,nan,-inf,0.0,[],[],[],-37.817774666666665,144.946662,1769.8,-37.81894533333333,144.950172,1.5,-35.84156328,143.1362385,63.2729524,-35.96631476,143.3707744,64.82851725,0.0,0.0,0.0,0.0,0.0,9.81,0.0,0.0,1.0,0.0,1616657293.0922747,0.0,0.0,0.0
2,-15324.7252807,-20795.89377,-15600.9249611,10.0692067599,8.56578806213,8.75723657052,nan,nan,-inf,0.0,[],[],[],-37.817774666666665,144.946662,1769.8,-37.81894533333333,144.950172,1.5,-35.84156328,143.1362385,63.2729524,-35.96631476,143.3707744,64.82851725,0.0,0.0,0.0,0.0,0.0,9.81,0.0,0.0,1.0,0.0,1616657293.1364217,0.0,0.0,0.0
2,-15324.6172249,-20795.7803818,-15600.8324429,9.81826877166,8.45130970818,9.09812360316,nan,nan,-inf,0.0,[],[],[],-37.817774666666665,144.946662,1769.8,-37.81894533333333,144.950172,1.5,-35.84156328,143.1362385,63.2729524,-35.96631476,143.3707744,64.82851725,0.0,0.0,0.0,0.0,0.0,9.81,0.0,0.0,1.0,0.0,1616657293.1766946,0.0,0.0,0.0
2,-15324.5242291,-20795.678558,-15600.7353189,9.5451325667,8.31730866864,9.44221910504,nan,nan,-inf,0.0,[],[],[],-37.817774666666665,144.946662,1769.8,-37.81894533333333,144.950172,1.5,-35.84156328,143.1362385,63.2729524,-35.96631476,143.3707744,64.82851725,0.0,0.0,0.0,0.0,0.0,9.81,0.0,0.0,1.0,0.0,1616657293.22372,0.0,0.0,0.0
2,-15324.4446013,-20795.5876388,-15600.6338377,9.25618438183,8.16613137324,9.78852979522,nan,nan,-inf,0.0,[],[],[],-37.817774666666665,144.946662,1769.8,-37.81894533333333,144.950172,1.5,-35.84156328,143.1362385,63.2729524,-35.96631476,143.3707744,64.82851725,0.0,0.0,0.0,0.0,0.0,9.81,0.0,0.0,1.0,0.0,1616657293.274685,0.0,0.0,0.0
2,-15324.3768486,-20795.5069564,-15600.5282449,8.95663069896,8.00008922202,10.1361474409,nan,nan,-inf,0.0,[],[],[],-37.817774666666665,144.946662,1769.8,-37.81894533333333,144.950172,1.5,-35.84156328,143.1362385,63.2729524,-35.96631476,143.3707744,64.82851725,0.0,0.0,0.0,0.0,0.0,9.81,0.0,0.0,1.0,0.0,1616657293.3178427,0.0,0.0,0.0
2,-15324.3196503,-20795.4358444,-15600.4187815,8.65070806949,7.82141327828,10.4842458961,nan,nan,-inf,0.0,[],[],[],-37.817774666666665,144.946662,1769.8,-37.81894533333333,144.950172,1.5,-35.84156328,143.1362385,63.2729524,-35.96631476,143.3707744,64.82851725,0.0,0.0,0.0,0.0,0.0,9.81,0.0,0.0,1.0,0.0,1616657293.357668,0.0,0.0,0.0
2,-15324.2718351,-20795.373646,-15600.3056832,8.34185459208,7.63222268293,10.832077578,nan,nan,-inf,0.0,[],[],[],-37.817774666666665,144.946662,1769.8,-37.81894533333333,144.950172,1.5,-35.84156328,143.1362385,63.2729524,-35.96631476,143.3707744,64.82851725,0.0,0.0,0.0,0.0,0.0,9.81,0.0,0.0,1.0,0.0,1616657293.3964782,0.0,0.0,0.0
2,-15324.2323619,-20795.3197202,-15600.1891791,8.03285024077,7.43450380353,11.1789695288,nan,nan,-inf,0.0,[],[],[],-37.817774666666665,144.946662,1769.8,-37.81894533333333,144.950172,1.5,-35.84156328,143.1362385,63.2729524,-35.96631476,143.3707744,64.82851725,0.0,0.0,0.0,0.0,0.0,9.81,0.0,0.0,1.0,0.0,1616657293.4443858,0.0,0.0,0.0
2,-15324.2003035,-20795.2734462,-15600.0694913,7.7259318834,7.23009770185,11.5243191909,nan,nan,-inf,0.0,[],[],[],-37.817774666666665,144.946662,1769.8,-37.81894533333333,144.950172,1.5,-35.84156328,143.1362385,63.2729524,-35.96631476,143.3707744,64.82851725,0.0,0.0,0.0,0.0,0.0,9.81,0.0,0.0,1.0,0.0,1616657293.4843197,0.0,0.0,0.0
2,-15324.1748325,-20795.234227,-15599.946834,7.42288772142,7.02069397494,11.867590006,nan,nan,-inf,0.0,[],[],[],-37.817774666666665,144.946662,1769.8,-37.81894533333333,144.950172,1.5,-35.84156328,143.1362385,63.2729524,-35.96631476,143.3707744,64.82851725,0.0,0.0,0.0,0.0,0.0,9.81,0.0,0.0,1.0,0.0,1616657293.524923,0.0,0.0,0.0
2,-15324.1552093,-20795.2014919,-15599.8214134,7.12513497954,6.80782941081,12.2083069295,nan,nan,-inf,0.0,[],[],[],-37.817774666666665,144.946662,1769.8,-37.81894533333333,144.950172,1.5,-35.84156328,143.1362385,63.2729524,-35.96631476,143.3707744,64.82851725,0.0,0.0,0.0,0.0,0.0,9.81,0.0,0.0,1.0,0.0,1616657293.5646327,0.0,0.0,0.0
2,-15324.1407719,-20795.1746979,-15599.6934276,6.83378394292,6.59289021604,12.5460519392,nan,nan,-inf,0.0,[],[],[],-37.817774666666665,144.946662,1769.8,-37.818942666666665,144.95017066666668,1.8,-35.84156328,143.1362385,63.2729524,-35.96631476,143.3707744,64.82851725,0.0,0.0,0.0,0.0,0.0,9.81,0.0,0.0,1.0,0.0,1616657293.604824,0.0,0.0,0.0
2,-15324.1598161,-20795.1372463,-15599.568821,6.46757220567,6.41952735832,12.873678743,nan,nan,-inf,0.0,[],[],[],-37.817774666666665,144.946662,1769.8,-37.818942666666665,144.95017066666668,1.8,-35.84156328,143.1362385,63.2729524,-35.96631476,143.3707744,64.82851725,0.0,0.0,0.0,0.0,0.0,9.81,0.0,0.0,1.0,0.0,1616657293.6495974,0.0,0.0,0.0
2,-15324.1785047,-20795.1064772,-15599.4418342,6.12715066455,6.23890911127,13.1980571498,nan,nan,-inf,0.0,[],[],[],-37.817774666666665,144.946662,1769.8,-37.818942666666665,144.95017066666668,1.8,-35.84156328,143.1362385,63.2729524,-35.96631476,143.3707744,64.82851725,0.0,0.0,0.0,0.0,0.0,9.81,0.0,0.0,1.0,0.0,1616657293.6886697,0.0,0.0,0.0
2,-15324.1969901,-20795.0817333,-15599.3126407,5.80983429905,6.05316939508,13.5189118578,nan,nan,-inf,0.0,[],[],[],-37.817774666666665,144.946662,1769.8,-37.818942666666665,144.95017066666668,1.8,-35.84156328,143.1362385,63.2729524,-35.96631476,143.3707744,64.82851725,0.0,0.0,0.0,0.0,0.0,9.81,0.0,0.0,1.0,0.0,1616657293.7295337,0.0,0.0,0.0
2,-15324.2153834,-20795.0624119,-15599.1814062,5.51332512973,5.86413716055,13.8360035088,nan,nan,-inf,0.0,[],[],[],-37.817774666666665,144.946662,1769.8,-37.818942666666665,144.95017066666668,1.8,-35.84156328,143.1362385,63.2729524,-35.96631476,143.3707744,64.82851725,0.0,0.0,0.0,0.0,0.0,9.81,0.0,0.0,1.0,0.0,1616657293.769355,0.0,0.0,0.0
2,-15324.2337623,-20795.0479607,-15599.0482893,5.23564833084,5.67337496319,14.1491258076,nan,nan,-inf,0.0,[],[],[],-37.817774666666665,144.946662,1769.8,-37.818942666666665,144.95017066666668,1.8,-35.84156328,143.1362385,63.2729524,-35.96631476,143.3707744,64.82851725,0.0,0.0,0.0,0.0,0.0,9.81,0.0,0.0,1.0,0.0,1616657293.8072,0.0,0.0,0.0
2,-15324.2521775,-20795.0378742,-15598.9134413,4.97509927372,5.48221262326,14.4581027046,nan,nan,-inf,0.0,[],[],[],-37.817774666666665,144.946662,1769.8,-37.818942666666665,144.95017066666668,1.8,-35.84156328,143.1362385,63.2729524,-35.96631476,143.3707744,64.82851725,0.0,0.0,0.0,0.0,0.0,9.81,0.0,0.0,1.0,0.0,1616657293.8470068,0.0,0.0,0.0
2,-15324.2706584,-20795.0316897,-15598.7770064,4.73019962014,5.29177664138,14.7627856691,nan,nan,-inf,0.0,[],[],[],-37.817774666666665,144.946662,1769.8,-37.818942666666665,144.95017066666668,1.8,-35.84156328,143.1362385,63.2729524,-35.96631476,143.3707744,64.82851725,0.0,0.0,0.0,0.0,0.0,9.81,0.0,0.0,1.0,0.0,1616657293.8867042,0.0,0.0,0.0
2,-15324.2892178,-20795.028984,-15598.6391222,4.4996609065,5.10301593918,15.0630510793,nan,nan,-inf,0.0,[],[],[],-37.817774666666665,144.946662,1769.8,-37.818942666666665,144.95017066666668,1.8,-35.84156328,143.1362385,63.2729524,-35.96631476,143.3707744,64.82851725,0.0,0.0,0.0,0.0,0.0,9.81,0.0,0.0,1.0,0.0,1616657293.9240606,0.0,0.0,0.0
2,-15324.3078553,-20795.0293705,-15598.4999196,4.28235432763,4.91672441046,15.3587977431,nan,nan,-inf,0.0,[],[],[],-37.817774666666665,144.946662,1769.8,-37.818942666666665,144.95017066666668,1.8,-35.84156328,143.1362385,63.2729524,-35.96631476,143.3707744,64.82851725,0.0,0.0,0.0,0.0,0.0,9.81,0.0,0.0,1.0,0.0,1616657293.967783,0.0,0.0,0.0
2,-15324.3265603,-20795.0324962,-15598.3595231,4.07728565141,4.73356069803,15.649944562,nan,nan,-inf,0.0,[],[],[],-37.81778033333333,144.946688,1761.5,-37.818942666666665,144.95017066666668,1.8,-35.84156328,143.1362385,63.2729524,-35.96631476,143.3707744,64.82851725,0.0,0.0,0.0,0.0,0.0,9.81,0.0,0.0,1.0,0.0,1616657294.0078402,0.0,0.0,0.0
2,-15324.180028,-20795.0405124,-15598.226025,4.26738474605,4.52342234063,15.9106675801,nan,nan,inf,0.0,[],[],[],-37.81778033333333,144.946688,1761.5,-37.818942666666665,144.95017066666668,1.8,-35.84156328,143.1362385,63.2729524,-35.96631476,143.3707744,64.82851725,0.0,0.0,0.0,0.0,0.0,9.81,0.0,0.0,1.0,0.0,1616657294.0461063,0.0,0.0,0.0
2,-15324.0519055,-20795.0475505,-15598.09094,4.40264207044,4.32952267579,16.1698215721,nan,nan,inf,0.0,[],[],[],-37.81778033333333,144.946688,1761.5,-37.818942666666665,144.95017066666668,1.8,-35.84156328,143.1362385,63.2729524,-35.96631476,143.3707744,64.82851725,0.0,0.0,0.0,0.0,0.0,9.81,0.0,0.0,1.0,0.0,1616657294.093531,0.0,0.0,0.0
2,-15323.9400474,-20795.0538891,-15597.9544073,4.49191754583,4.14976328006,16.4270807639,nan,nan,inf,0.0,[],[],[],-37.81778033333333,144.946688,1761.5,-37.818942666666665,144.95017066666668,1.8,-35.84156328,143.1362385,63.2729524,-35.96631476,143.3707744,64.82851725,0.0,0.0,0.0,0.0,0.0,9.81,0.0,0.0,1.0,0.0,1616657294.1362286,0.0,0.0,0.0
2,-15323.8425645,-20795.0597535,-15597.8165599,4.54275524758,3.9823798967,16.6821584411,nan,nan,inf,0.0,[],[],[],-37.81778033333333,144.946688,1761.5,-37.818942666666665,144.95017066666668,1.8,-35.84156328,143.1362385,63.2729524,-35.96631476,143.3707744,64.82851725,0.0,0.0,0.0,0.0,0.0,9.81,0.0,0.0,1.0,0.0,1616657294.1817024,0.0,0.0,0.0
2,-15323.7577922,-20795.065324,-15597.6775248,4.56157881622,3.82588742402,16.9348027153,nan,nan,inf,0.0,[],[],[],-37.81778033333333,144.946688,1761.5,-37.818942666666665,144.95017066666668,1.8,-35.84156328,143.1362385,63.2729524,-35.96631476,143.3707744,64.82851725,0.0,0.0,0.0,0.0,0.0,9.81,0.0,0.0,1.0,0.0,1616657294.2298393,0.0,0.0,0.0
2,-15323.6842626,-20795.0707436,-15597.5374235,4.5538572523,3.67903390134,17.1847927056,nan,nan,inf,0.0,[],[],[],-37.81778033333333,144.946688,1761.5,-37.818942666666665,144.95017066666668,1.8,-35.84156328,143.1362385,63.2729524,-35.96631476,143.3707744,64.82851725,0.0,0.0,0.0,0.0,0.0,9.81,0.0,0.0,1.0,0.0,1616657294.2850592,0.0,0.0,0.0
2,-15323.62068,-20795.0761242,-15597.3963719,4.52424570702,3.54076205732,17.4319350969,nan,nan,inf,0.0,[],[],[],-37.81778033333333,144.946688,1761.5,-37.818942666666665,144.95017066666668,1.8,-35.84156328,143.1362385,63.2729524,-35.96631476,143.3707744,64.82851725,0.0,0.0,0.0,0.0,0.0,9.81,0.0,0.0,1.0,0.0,1616657294.3276124,0.0,0.0,0.0
2,-15323.5658998,-20795.0815518,-15597.2544811,4.47670503913,3.4101771367,17.6760610652,nan,nan,inf,0.0,[],[],[],-37.81778033333333,144.946688,1761.5,-37.818942666666665,144.95017066666668,1.8,-35.84156328,143.1362385,63.2729524,-35.96631476,143.3707744,64.82851725,0.0,0.0,0.0,0.0,0.0,9.81,0.0,0.0,1.0,0.0,1616657294.365995,0.0,0.0,0.0
2,-15323.5189104,-20795.0870908,-15597.1118576,4.4146034897,3.28652003466,17.9170235175,nan,nan,inf,0.0,[],[],[],-37.81778033333333,144.946688,1761.5,-37.818942666666665,144.95017066666668,1.8,-35.84156328,143.1362385,63.2729524,-35.96631476,143.3707744,64.82851725,0.0,0.0,0.0,0.0,0.0,9.81,0.0,0.0,1.0,0.0,1616657294.4047077,0.0,0.0,0.0
2,-15323.4788163,-20795.0927882,-15596.9686034,4.34080317861,3.16914484758,18.1546946284,nan,nan,inf,0.0,[],[],[],-37.81778033333333,144.946688,1761.5,-37.818942666666665,144.95017066666668,1.8,-35.84156328,143.1362385,63.2729524,-35.96631476,143.3707744,64.82851725,0.0,0.0,0.0,0.0,0.0,9.81,0.0,0.0,1.0,0.0,1616657294.4482627,0.0,0.0,0.0
2,-15323.4448248,-20795.0986761,-15596.8248166,4.25773375378,3.05750012438,18.3889636417,nan,nan,-inf,0.0,[],[],[],-37.81778033333333,144.946688,1761.5,-37.818942666666665,144.95017066666668,1.8,-35.84156328,143.1362385,63.2729524,-35.96631476,143.3707744,64.82851725,0.0,0.0,0.0,0.0,0.0,9.81,0.0,0.0,1.0,0.0,1616657294.489103,0.0,0.0,0.0
2,-15323.4162333,-20795.1047752,-15596.6805915,4.16745515227,2.95111321408,18.6197349127,nan,nan,-inf,0.0,[],[],[],-37.81778033333333,144.946688,1761.5,-37.818942666666665,144.95017066666668,1.8,-35.84156328,143.1362385,63.2729524,-35.96631476,143.3707744,64.82851725,0.0,0.0,0.0,0.0,0.0,9.81,0.0,0.0,1.0,0.0,1616657294.5281415,0.0,0.0,0.0
2,-15323.3924189,-20795.1110962,-15596.5360189,4.07171112662,2.84957720331,18.8469261652,nan,nan,-inf,0.0,[],[],[],-37.81778033333333,144.946688,1761.5,-37.818942666666665,144.95017066666668,1.8,-35.84156328,143.1362385,63.2729524,-35.96631476,143.3707744,64.82851725,0.0,0.0,0.0,0.0,0.0,9.81,0.0,0.0,1.0,0.0,1616657294.5682628,0.0,0.0,0.0
2,-15323.3728284,-20795.1176424,-15596.3911862,3.97197493276,2.75254002023,19.0704669434,nan,nan,-inf,0.0,[],[],[],-37.81778033333333,144.946688,1761.5,-37.81893983333333,144.95017233333334,1.9,-35.84156328,143.1362385,63.2729524,-35.96631476,143.3707744,64.82851725,0.0,0.0,0.0,0.0,0.0,9.81,0.0,0.0,1.0,0.0,1616657294.610307,0.0,0.0,0.0
2,-15323.3639999,-20795.1147189,-15596.2417184,3.85328565394,2.67757506379,19.2920982316,nan,nan,-inf,0.0,[],[],[],-37.81778033333333,144.946688,1761.5,-37.81893983333333,144.95017233333334,1.9,-35.84156328,143.1362385,63.2729524,-35.96631476,143.3707744,64.82851725,0.0,0.0,0.0,0.0,0.0,9.81,0.0,0.0,1.0,0.0,1616657294.6561213,0.0,0.0,0.0
2,-15323.3574375,-20795.1126783,-15596.0922489,3.73595802343,2.60440861148,19.5100115151,nan,nan,-inf,0.0,[],[],[],-37.81778033333333,144.946688,1761.5,-37.81893983333333,144.95017233333334,1.9,-35.84156328,143.1362385,63.2729524,-35.96631476,143.3707744,64.82851725,0.0,0.0,0.0,0.0,0.0,9.81,0.0,0.0,1.0,0.0,1616657294.6955872,0.0,0.0,0.0
2,-15323.3528781,-20795.111459,-15595.9428525,3.62041728747,2.53302885668,19.7241593591,nan,nan,-inf,0.0,[],[],[],-37.81778033333333,144.946688,1761.5,-37.81893983333333,144.95017233333334,1.9,-35.84156328,143.1362385,63.2729524,-35.96631476,143.3707744,64.82851725,0.0,0.0,0.0,0.0,0.0,9.81,0.0,0.0,1.0,0.0,1616657294.7395208,0.0,0.0,0.0
2,-15323.3500868,-20795.1110007,-15595.7936019,3.50700505879,2.46342581996,19.934501264,nan,nan,-inf,0.0,[],[],[],-37.81778033333333,144.946688,1761.5,-37.81893983333333,144.95017233333334,1.9,-35.84156328,143.1362385,63.2729524,-35.96631476,143.3707744,64.82851725,0.0,0.0,0.0,0.0,0.0,9.81,0.0,0.0,1.0,0.0,1616657294.7821918,0.0,0.0,0.0
2,-15323.3488541,-20795.1112457,-15595.6445679,3.3959918863,2.39558996033,20.1410029339,nan,nan,-inf,0.0,[],[],[],-37.81778033333333,144.946688,1761.5,-37.81893983333333,144.95017233333334,1.9,-35.84156328,143.1362385,63.2729524,-35.96631476,143.3707744,64.82851725,0.0,0.0,0.0,0.0,0.0,9.81,0.0,0.0,1.0,0.0,1616657294.8230639,0.0,0.0,0.0
2,-15323.3489926,-20795.1121383,-15595.4958197,3.28758800164,2.32951113997,20.3436356266,nan,nan,-inf,0.0,[],[],[],-37.81778033333333,144.946688,1761.5,-37.81893983333333,144.95017233333334,1.9,-35.84156328,143.1362385,63.2729524,-35.96631476,143.3707744,64.82851725,0.0,0.0,0.0,0.0,0.0,9.81,0.0,0.0,1.0,0.0,1616657294.8636441,0.0,0.0,0.0
2,-15323.3503353,-20795.1136255,-15595.3474248,3.1819525115,2.2651778734,20.5423755787,nan,nan,-inf,0.0,[],[],[],-37.81778033333333,144.946688,1761.5,-37.81893983333333,144.95017233333334,1.9,-35.84156328,143.1362385,63.2729524,-35.96631476,143.3707744,64.82851725,0.0,0.0,0.0,0.0,0.0,9.81,0.0,0.0,1.0,0.0,1616657294.9031734,0.0,0.0,0.0
2,-15323.3527326,-20795.1156567,-15595.1994494,3.07920126383,2.20257680413,20.7372034978,nan,nan,-inf,0.0,[],[],[],-37.81778033333333,144.946688,1761.5,-37.81893983333333,144.95017233333334,1.9,-35.84156328,143.1362385,63.2729524,-35.96631476,143.3707744,64.82851725,0.0,0.0,0.0,0.0,0.0,9.81,0.0,0.0,1.0,0.0,1616657294.945885,0.0,0.0,0.0
2,-15323.3560511,-20795.1181841,-15595.0519579,2.97941358175,2.14169236213,20.9281041169,nan,nan,-inf,0.0,[],[],[],-37.81778033333333,144.946688,1761.5,-37.81893983333333,144.95017233333334,1.9,-35.84156328,143.1362385,63.2729524,-35.96631476,143.3707744,64.82851725,0.0,0.0,0.0,0.0,0.0,9.81,0.0,0.0,1.0,0.0,1616657294.9886525,0.0,0.0,0.0
2,-15323.264565,-20795.1130376,-15594.9110432,3.05322225785,2.0874038054,21.0998351478,nan,nan,inf,0.0,[],[],[],-37.81778216666667,144.9467065,1755.9,-37.81893983333333,144.95017233333334,1.9,-35.84156328,143.1362385,63.2729524,-35.96631476,143.3707744,64.82851725,0.0,0.0,0.0,0.0,0.0,9.81,0.0,0.0,1.0,0.0,1616657295.0310924,0.0,0.0,0.0
2,-15323.1819108,-20795.1074949,-15594.7703059,3.10768234253,2.03701501567,21.2692238895,nan,nan,inf,0.0,[],[],[],-37.81778216666667,144.9467065,1755.9,-37.81893983333333,144.95017233333334,1.9,-35.84156328,143.1362385,63.2729524,-35.96631476,143.3707744,64.82851725,0.0,0.0,0.0,0.0,0.0,9.81,0.0,0.0,1.0,0.0,1616657295.0739832,0.0,0.0,0.0
2,-15323.1072644,-20795.1016774,-15594.6298265,3.14534559117,1.99000476553,21.4361397307,nan,nan,inf,0.0,[],[],[],-37.81778216666667,144.9467065,1755.9,-37.81893983333333,144.95017233333334,1.9,-35.84156328,143.1362385,63.2729524,-35.96631476,143.3707744,64.82851725,0.0,0.0,0.0,0.0,0.0,9.81,0.0,0.0,1.0,0.0,1616657295.1137881,0.0,0.0,0.0
2,-15323.0398823,-20795.0956886,-15594.4896834,3.16845357031,1.94592511511,21.600464056,nan,nan,inf,0.0,[],[],[],-37.81778216666667,144.9467065,1755.9,-37.81893983333333,144.95017233333334,1.9,-35.84156328,143.1362385,63.2729524,-35.96631476,143.3707744,64.82851725,0.0,0.0,0.0,0.0,0.0,9.81,0.0,0.0,1.0,0.0,1616657295.1622038,0.0,0.0,0.0
2,-15322.9790937,-20795.0896168,-15594.3499535,3.17897553249,1.90439119742,21.7620892977,nan,nan,inf,0.0,[],[],[],-37.81778216666667,144.9467065,1755.9,-37.81893983333333,144.95017233333334,1.9,-35.84156328,143.1362385,63.2729524,-35.96631476,143.3707744,64.82851725,0.0,0.0,0.0,0.0,0.0,9.81,0.0,0.0,1.0,0.0,1616657295.2062101,0.0,0.0,0.0
2,-15322.9242929,-20795.0835365,-15594.2107114,3.17864152766,1.86507240529,21.9209180854,nan,nan,inf,0.0,[],[],[],-37.81778216666667,144.9467065,1755.9,-37.81893983333333,144.95017233333334,1.9,-35.84156328,143.1362385,63.2729524,-35.96631476,143.3707744,64.82851725,0.0,0.0,0.0,0.0,0.0,9.81,0.0,0.0,1.0,0.0,1616657295.2498732,0.0,0.0,0.0
2,-15322.8749324,-20795.0775111,-15594.07203,3.16897136985,1.82768478803,22.0768624814,nan,nan,inf,0.0,[],[],[],-37.81778216666667,144.9467065,1755.9,-37.81893983333333,144.95017233333334,1.9,-35.84156328,143.1362385,63.2729524,-35.96631476,143.3707744,64.82851725,0.0,0.0,0.0,0.0,0.0,9.81,0.0,0.0,1.0,0.0,1616657295.2922945,0.0,0.0,0.0
2,-15322.8305172,-20795.0715936,-15593.9339806,3.15129999559,1.79198449254,22.2298432966,nan,nan,inf,0.0,[],[],[],-37.81778216666667,144.9467065,1755.9,-37.81893983333333,144.95017233333334,1.9,-35.84156328,143.1362385,63.2729524,-35.96631476,143.3707744,64.82851725,0.0,0.0,0.0,0.0,0.0,9.81,0.0,0.0,1.0,0.0,1616657295.337851,0.0,0.0,0.0
2,-15322.7905994,-20795.0658281,-15593.7966324,3.126799679,1.75776210626,22.3797894766,nan,nan,inf,0.0,[],[],[],-37.81778216666667,144.9467065,1755.9,-37.81893983333333,144.95017233333334,1.9,-35.84156328,143.1362385,63.2729524,-35.96631476,143.3707744,64.82851725,0.0,0.0,0.0,0.0,0.0,9.81,0.0,0.0,1.0,0.0,1616657295.3759706,0.0,0.0,0.0
2,-15322.7547738,-20795.0602515,-15593.6600531,3.09649950708,1.72483777876,22.5266375514,nan,nan,-inf,0.0,[],[],[],-37.81778216666667,144.9467065,1755.9,-37.81893983333333,144.95017233333334,1.9,-35.84156328,143.1362385,63.2729524,-35.96631476,143.3707744,64.82851725,0.0,0.0,0.0,0.0,0.0,9.81,0.0,0.0,1.0,0.0,1616657295.415774,0.0,0.0,0.0
2,-15322.7226728,-20795.0548939,-15593.5243086,3.06130246508,1.69305701597,22.6703311429,nan,nan,-inf,0.0,[],[],[],-37.81778216666667,144.9467065,1755.9,-37.81893983333333,144.95017233333334,1.9,-35.84156328,143.1362385,63.2729524,-35.96631476,143.3707744,64.82851725,0.0,0.0,0.0,0.0,0.0,9.81,0.0,0.0,1.0,0.0,1616657295.456146,0.0,0.0,0.0
2,-15322.6939638,-20795.0497796,-15593.3894631,3.02200043102,1.66228705191,22.8108205247,nan,nan,-inf,0.0,[],[],[],-37.81778216666667,144.9467065,1755.9,-37.81893983333333,144.95017233333334,1.9,-35.84156328,143.1362385,63.2729524,-35.96631476,143.3707744,64.82851725,0.0,0.0,0.0,0.0,0.0,9.81,0.0,0.0,1.0,0.0,1616657295.504154,0.0,0.0,0.0
2,-15322.6683447,-20795.0449284,-15593.2555789,2.97928736789,1.63241373608,22.9480622224,nan,nan,-inf,0.0,[],[],[],-37.81778216666667,144.9467065,1755.9,-37.81893983333333,144.95017233333334,1.9,-35.84156328,143.1362385,63.2729524,-35.96631476,143.3707744,64.82851725,0.0,0.0,0.0,0.0,0.0,9.81,0.0,0.0,1.0,0.0,1616657295.5449538,0.0,0.0,0.0
2,-15322.6366115,-20795.0396326,-15593.1132989,2.94760095364,1.60349320319,23.0888512484,nan,nan,-inf,0.0,[],[],[],-37.81778216666667,144.9467065,1755.9,-37.81893866666667,144.95017566666667,1.7,-35.84156328,143.1362385,63.2729524,-35.96631476,143.3707744,64.82851725,0.0,0.0,0.0,0.0,0.0,9.81,0.0,0.0,1.0,0.0,1616657295.588757,0.0,0.0,0.0
2,-15322.6081172,-20795.0345519,-15592.9722697,2.91202630347,1.57547660633,23.2261485802,nan,nan,-inf,0.0,[],[],[],-37.81778216666667,144.9467065,1755.9,-37.81893866666667,144.95017566666667,1.7,-35.84156328,143.1362385,63.2729524,-35.96631476,143.3707744,64.82851725,0.0,0.0,0.0,0.0,0.0,9.81,0.0,0.0,1.0,0.0,1616657295.6356165,0.0,0.0,0.0
2,-15322.5825817,-20795.0297071,-15592.8325462,2.87319345425,1.5482571782,23.3599271225,nan,nan,-inf,0.0,[],[],[],-37.81778216666667,144.9467065,1755.9,-37.81893866666667,144.95017566666667,1.7,-35.84156328,143.1362385,63.2729524,-35.96631476,143.3707744,64.82851725,0.0,0.0,0.0,0.0,0.0,9.81,0.0,0.0,1.0,0.0,1616657295.674089,0.0,0.0,0.0
2,-15322.5597503,-20795.0251153,-15592.6941814,2.83165601133,1.5217424961,23.4901650584,nan,nan,-inf,0.0,[],[],[],-37.81778216666667,144.9467065,1755.9,-37.81893866666667,144.95017566666667,1.7,-35.84156328,143.1362385,63.2729524,-35.96631476,143.3707744,64.82851725,0.0,0.0,0.0,0.0,0.0,9.81,0.0,0.0,1.0,0.0,1616657295.7148387,0.0,0.0,0.0
2,-15322.5393913,-20795.0207898,-15592.5572267,2.78789996612,1.49585247107,23.6168455941,nan,nan,-inf,0.0,[],[],[],-37.81778216666667,144.9467065,1755.9,-37.81893866666667,144.95017566666667,1.7,-35.84156328,143.1362385,63.2729524,-35.96631476,143.3707744,64.82851725,0.0,0.0,0.0,0.0,0.0,9.81,0.0,0.0,1.0,0.0,1616657295.7540867,0.0,0.0,0.0
2,-15322.5212938,-20795.0167414,-15592.4217319,2.74235148195,1.47051761016,23.7399567286,nan,nan,-inf,0.0,[],[],[],-37.81778216666667,144.9467065,1755.9,-37.81893866666667,144.95017566666667,1.7,-35.84156328,143.1362385,63.2729524,-35.96631476,143.3707744,64.82851725,0.0,0.0,0.0,0.0,0.0,9.81,0.0,0.0,1.0,0.0,1616657295.7935858,0.0,0.0,0.0
2,-15322.5052657,-20795.0129782,-15592.2877448,2.69538377312,1.44567751555,23.8594910462,nan,nan,-inf,0.0,[],[],[],-37.81778216666667,144.9467065,1755.9,-37.81893866666667,144.95017566666667,1.7,-35.84156328,143.1362385,63.2729524,-35.96631476,143.3707744,64.82851725,0.0,0.0,0.0,0.0,0.0,9.81,0.0,0.0,1.0,0.0,1616657295.8347988,0.0,0.0,0.0
2,-15322.491132,-20795.0095062,-15592.1553119,2.64732318637,1.42127958899,23.9754455272,nan,nan,-inf,0.0,[],[],[],-37.81778216666667,144.9467065,1755.9,-37.81893866666667,144.95017566666667,1.7,-35.84156328,143.1362385,63.2729524,-35.96631476,143.3707744,64.82851725,0.0,0.0,0.0,0.0,0.0,9.81,0.0,0.0,1.0,0.0,1616657295.8735113,0.0,0.0,0.0
2,-15322.4787334,-20795.0063297,-15592.0244774,2.59845458031,1.39727791452,24.0878213767,nan,nan,-inf,0.0,[],[],[],-37.81778216666667,144.9467065,1755.9,-37.81893866666667,144.95017566666667,1.7,-35.84156328,143.1362385,63.2729524,-35.96631476,143.3707744,64.82851725,0.0,0.0,0.0,0.0,0.0,9.81,0.0,0.0,1.0,0.0,1616657295.9140973,0.0,0.0,0.0
2,-15322.4679245,-20795.0034512,-15591.895284,2.54902608642,1.37363229562,24.1966238672,nan,nan,-inf,0.0,[],[],[],-37.817784,144.94671616666668,1752.7,-37.81893866666667,144.95017566666667,1.7,-35.84156328,143.1362385,63.2729524,-35.96631476,143.3707744,64.82851725,0.0,0.0,0.0,0.0,0.0,9.81,0.0,0.0,1.0,0.0,1616657295.9548495,0.0,0.0,0.0
2,-15322.418068,-20794.9995428,-15591.7698493,2.55804108363,1.34974402431,24.2976082849,nan,nan,inf,0.0,[],[],[],-37.817784,144.94671616666668,1752.7,-37.81893866666667,144.95017566666667,1.7,-35.84156328,143.1362385,63.2729524,-35.96631476,143.3707744,64.82851725,0.0,0.0,0.0,0.0,0.0,9.81,0.0,0.0,1.0,0.0,1616657295.99411,0.0,0.0,0.0
2,-15322.3724472,-20794.9955815,-15591.6459865,2.56047264902,1.32690006925,24.3954640277,nan,nan,inf,0.0,[],[],[],-37.817784,144.94671616666668,1752.7,-37.81893866666667,144.95017566666667,1.7,-35.84156328,143.1362385,63.2729524,-35.96631476,143.3707744,64.82851725,0.0,0.0,0.0,0.0,0.0,9.81,0.0,0.0,1.0,0.0,1616657296.0331624,0.0,0.0,0.0
2,-15322.330734,-20794.991615,-15591.5237399,2.55709304374,1.30495186086,24.4901771507,nan,nan,inf,0.0,[],[],[],-37.817784,144.94671616666668,1752.7,-37.81893866666667,144.95017566666667,1.7,-35.84156328,143.1362385,63.2729524,-35.96631476,143.3707744,64.82851725,0.0,0.0,0.0,0.0,0.0,9.81,0.0,0.0,1.0,0.0,1616657296.0767074,0.0,0.0,0.0
2,-15322.292628,-20794.9876859,-15591.403151,2.54859368792,1.28376869422,24.5817392811,nan,nan,inf,0.0,[],[],[],-37.817784,144.94671616666668,1752.7,-37.81893866666667,144.95017566666667,1.7,-35.84156328,143.1362385,63.2729524,-35.96631476,143.3707744,64.82851725,0.0,0.0,0.0,0.0,0.0,9.81,0.0,0.0,1.0,0.0,1616657296.1148717,0.0,0.0,0.0
2,-15322.2578533,-20794.9838313,-15591.2842595,2.53559354829,1.26323559881,24.6701473664,nan,nan,inf,0.0,[],[],[],-37.817784,144.94671616666668,1752.7,-37.81893866666667,144.95017566666667,1.7,-35.84156328,143.1362385,63.2729524,-35.96631476,143.3707744,64.82851725,0.0,0.0,0.0,0.0,0.0,9.81,0.0,0.0,1.0,0.0,1616657296.17227,0.0,0.0,0.0
2,-15322.2261567,-20794.9800839,-15591.1671025,2.51864663262,1.24325146099,24.7554034384,nan,nan,-inf,0.0,[],[],[],-37.817784,144.94671616666668,1752.7,-37.81893866666667,144.95017566666667,1.7,-35.84156328,143.1362385,63.2729524,-35.96631476,143.3707744,64.82851725,0.0,0.0,0.0,0.0,0.0,9.81,0.0,0.0,1.0,0.0,1616657296.2156334,0.0,0.0,0.0
2,-15322.1973057,-20794.9764726,-15591.051715,2.49824868963,1.22372736937,24.8375143915,nan,nan,-inf,0.0,[],[],[],-37.817784,144.94671616666668,1752.7,-37.81893866666667,144.95017566666667,1.7,-35.84156328,143.1362385,63.2729524,-35.96631476,143.3707744,64.82851725,0.0,0.0,0.0,0.0,0.0,9.81,0.0,0.0,1.0,0.0,1616657296.2649553,0.0,0.0,0.0
2,-15322.1710869,-20794.9730223,-15590.9381295,2.47484320165,1.20458515685,24.9164917727,nan,nan,-inf,0.0,[],[],[],-37.817784,144.94671616666668,1752.7,-37.81893866666667,144.95017566666667,1.7,-35.84156328,143.1362385,63.2729524,-35.96631476,143.3707744,64.82851725,0.0,0.0,0.0,0.0,0.0,9.81,0.0,0.0,1.0,0.0,1616657296.3055596,0.0,0.0,0.0
2,-15322.1473041,-20794.9697552,-15590.8263763,2.44882674771,1.18575611615,24.9923515826,nan,nan,-inf,0.0,[],[],[],-37.817784,144.94671616666668,1752.7,-37.81893866666667,144.95017566666667,1.7,-35.84156328,143.1362385,63.2729524,-35.96631476,143.3707744,64.82851725,0.0,0.0,0.0,0.0,0.0,9.81,0.0,0.0,1.0,0.0,1616657296.345676,0.0,0.0,0.0
2,-15322.1257767,-20794.9666903,-15590.7164833,2.42055380544,1.16717986848,25.0651140851,nan,nan,-inf,0.0,[],[],[],-37.817784,144.94671616666668,1752.7,-37.81893866666667,144.95017566666667,1.7,-35.84156328,143.1362385,63.2729524,-35.96631476,143.3707744,64.82851725,0.0,0.0,0.0,0.0,0.0,9.81,0.0,0.0,1.0,0.0,1616657296.3839245,0.0,0.0,0.0
2,-15322.1063389,-20794.9638441,-15590.6084761,2.39034105283,1.14880336723,25.1348036253,nan,nan,-inf,0.0,[],[],[],-37.817784,144.94671616666668,1752.7,-37.81893866666667,144.95017566666667,1.7,-35.84156328,143.1362385,63.2729524,-35.96631476,143.3707744,64.82851725,0.0,0.0,0.0,0.0,0.0,9.81,0.0,0.0,1.0,0.0,1616657296.422052,0.0,0.0,0.0
2,-15322.0888381,-20794.9612312,-15590.5023779,2.35847122375,1.13058002095,25.2014484535,nan,nan,-inf,0.0,[],[],[],-37.817784,144.94671616666668,1752.7,-37.81893866666667,144.95017566666667,1.7,-35.84156328,143.1362385,63.2729524,-35.96631476,143.3707744,64.82851725,0.0,0.0,0.0,0.0,0.0,9.81,0.0,0.0,1.0,0.0,1616657296.4628408,0.0,0.0,0.0
2,-15322.0731336,-20794.9588638,-15590.3982093,2.3251965652,1.11246892147,25.2650805551,nan,nan,-inf,0.0,[],[],[],-37.817784,144.94671616666668,1752.7,-37.81893866666667,144.95017566666667,1.7,-35.84156328,143.1362385,63.2729524,-35.96631476,143.3707744,64.82851725,0.0,0.0,0.0,0.0,0.0,9.81,0.0,0.0,1.0,0.0,1616657296.5026653,0.0,0.0,0.0
2,-15322.0590961,-20794.9567525,-15590.2959889,2.29074193894,1.09443416488,25.3257354851,nan,nan,-inf,0.0,[],[],[],-37.817784,144.94671616666668,1752.7,-37.81893866666667,144.95017566666667,1.7,-35.84156328,143.1362385,63.2729524,-35.96631476,143.3707744,64.82851725,0.0,0.0,0.0,0.0,0.0,9.81,0.0,0.0,1.0,0.0,1616657296.5435781,0.0,0.0,0.0
2,-15322.0466064,-20794.9549065,-15590.1957327,2.25530760526,1.07644425451,25.383452207,nan,nan,-inf,0.0,[],[],[],-37.817784,144.94671616666668,1752.7,-37.81893866666667,144.95017566666667,1.7,-35.84156328,143.1362385,63.2729524,-35.96631476,143.3707744,64.82851725,0.0,0.0,0.0,0.0,0.0,9.81,0.0,0.0,1.0,0.0,1616657296.5863204,0.0,0.0,0.0
2,-15322.0355547,-20794.9533332,-15590.0974542,2.21907172259,1.05847157613,25.438272934,nan,nan,-inf,0.0,[],[],[],-37.817784,144.94671616666668,1752.7,-37.81893866666667,144.95017566666667,1.7,-35.84156328,143.1362385,63.2729524,-35.96631476,143.3707744,64.82851725,0.0,0.0,0.0,0.0,0.0,9.81,0.0,0.0,1.0,0.0,1616657296.6245282,0.0,0.0,0.0
2,-15322.0258397,-20794.9520391,-15590.0011648,2.18219259289,1.04049193705,25.4902429739,nan,nan,-inf,0.0,[],[],[],-37.817784,144.94671616666668,1752.7,-37.81893866666667,144.95017566666667,1.7,-35.84156328,143.1362385,63.2729524,-35.96631476,143.3707744,64.82851725,0.0,0.0,0.0,0.0,0.0,9.81,0.0,0.0,1.0,0.0,1616657296.6747463,0.0,0.0,0.0
2,-15322.0375486,-20794.9433552,-15589.9193538,2.11871883078,1.03296950632,25.5290989402,nan,nan,-inf,0.0,[],[],[],-37.817784,144.94671616666668,1752.7,-37.818937166666664,144.95017133333334,2.0,-35.84156328,143.1362385,63.2729524,-35.96631476,143.3707744,64.82851725,0.0,0.0,0.0,0.0,0.0,9.81,0.0,0.0,1.0,0.0,1616657296.7188885,0.0,0.0,0.0
2,-15322.0489717,-20794.9354723,-15589.8393391,2.05759761747,1.02434577727,25.5655377577,nan,nan,-inf,0.0,[],[],[],-37.817784,144.94671616666668,1752.7,-37.818937166666664,144.95017133333334,2.0,-35.84156328,143.1362385,63.2729524,-35.96631476,143.3707744,64.82851725,0.0,0.0,0.0,0.0,0.0,9.81,0.0,0.0,1.0,0.0,1616657296.7603476,0.0,0.0,0.0
2,-15322.0601337,-20794.92836,-15589.761125,1.9986934753,1.01469301794,25.5996089396,nan,nan,-inf,0.0,[],[],[],-37.817784,144.94671616666668,1752.7,-37.818937166666664,144.95017133333334,2.0,-35.84156328,143.1362385,63.2729524,-35.96631476,143.3707744,64.82851725,0.0,0.0,0.0,0.0,0.0,9.81,0.0,0.0,1.0,0.0,1616657296.7982726,0.0,0.0,0.0
2,-15322.0710579,-20794.9219897,-15589.6847138,1.94187980543,1.00407815235,25.6313643138,nan,nan,-inf,0.0,[],[],[],-37.81778333333333,144.94672,1750.9,-37.818937166666664,144.95017133333334,2.0,-35.84156328,143.1362385,63.2729524,-35.96631476,143.3707744,64.82851725,0.0,0.0,0.0,0.0,0.0,9.81,0.0,0.0,1.0,0.0,1616657296.8442776,0.0,0.0,0.0
2,-15322.0668978,-20794.9119918,-15589.6110987,1.90488120766,0.997052705714,25.6591490921,nan,nan,-inf,0.0,[],[],[],-37.81778333333333,144.94672,1750.9,-37.818937166666664,144.95017133333334,2.0,-35.84156328,143.1362385,63.2729524,-35.96631476,143.3707744,64.82851725,0.0,0.0,0.0,0.0,0.0,9.81,0.0,0.0,1.0,0.0,1616657296.88424,0.0,0.0,0.0
2,-15322.0633752,-20794.9027334,-15589.5392122,1.86817207483,0.989046640819,25.684894352,nan,nan,-inf,0.0,[],[],[],-37.81778333333333,144.94672,1750.9,-37.818937166666664,144.95017133333334,2.0,-35.84156328,143.1362385,63.2729524,-35.96631476,143.3707744,64.82851725,0.0,0.0,0.0,0.0,0.0,9.81,0.0,0.0,1.0,0.0,1616657296.9227996,0.0,0.0,0.0
2,-15322.0604581,-20794.8941964,-15589.4690533,1.8317715444,0.980107150162,25.7086467718,nan,nan,-inf,0.0,[],[],[],-37.81778333333333,144.94672,1750.9,-37.818937166666664,144.95017133333334,2.0,-35.84156328,143.1362385,63.2729524,-35.96631476,143.3707744,64.82851725,0.0,0.0,0.0,0.0,0.0,9.81,0.0,0.0,1.0,0.0,1616657296.9664218,0.0,0.0,0.0
2,-15322.0581166,-20794.8863632,-15589.400619,1.79569549473,0.970279074481,25.7304554653,nan,nan,-inf,0.0,[],[],[],-37.81778333333333,144.94672,1750.9,-37.818937166666664,144.95017133333334,2.0,-35.84156328,143.1362385,63.2729524,-35.96631476,143.3707744,64.82851725,0.0,0.0,0.0,0.0,0.0,9.81,0.0,0.0,1.0,0.0,1616657297.0053003,0.0,0.0,0.0
2,-15322.056323,-20794.8792165,-15589.3339037,1.75995690262,0.95960501799,25.7503718176,nan,nan,-inf,0.0,[],[],[],-37.81778333333333,144.94672,1750.9,-37.818937166666664,144.95017133333334,2.0,-35.84156328,143.1362385,63.2729524,-35.96631476,143.3707744,64.82851725,0.0,0.0,0.0,0.0,0.0,9.81,0.0,0.0,1.0,0.0,1616657297.0523126,0.0,0.0,0.0
2,-15322.0550513,-20794.8727397,-15589.2689,1.72456616505,0.948125462086,25.7684493235,nan,nan,-inf,0.0,[],[],[],-37.81778333333333,144.94672,1750.9,-37.818937166666664,144.95017133333334,2.0,-35.84156328,143.1362385,63.2729524,-35.96631476,143.3707744,64.82851725,0.0,0.0,0.0,0.0,0.0,9.81,0.0,0.0,1.0,0.0,1616657297.0926669,0.0,0.0,0.0
2,-15322.0542772,-20794.8669164,-15589.2055982,1.68953138868,0.935878877123,25.784743426,nan,nan,-inf,0.0,[],[],[],-37.81778333333333,144.94672,1750.9,-37.818937166666664,144.95017133333334,2.0,-35.84156328,143.1362385,63.2729524,-35.96631476,143.3707744,64.82851725,0.0,0.0,0.0,0.0,0.0,9.81,0.0,0.0,1.0,0.0,1616657297.1372185,0.0,0.0,0.0
