sysID,x1,x2,x3,x4,x5,x6,x7,x8,x9,x10,roll,pitch,yaw,gps0_lat,gps0_lon,gps0_alt,gps1_lat,gps1_lon,gps1_alt,gps2_lat,gps2_lon,gps2_alt,gps3_lat,gps3_lon,gps3_alt,gyro_x,gyro_y,gyro_z,accel_x,accel_y,accel_z,qt1,qt2,qt3,qt4,epoch,magVec1,magVec2,magVec3
2,-13081.8124403,-18994.977254,-15539.5114107,12.3107506622,13.4529130994,-77.5102563027,nan,nan,nan,0.0,[],[],[],-37.8190095,144.95134133333335,165.0,-37.81868566666667,144.95084,96.1,-35.84156328,143.1362385,63.2729524,-35.96631476,143.3707744,64.82851725,0.0,0.0,0.0,0.0,0.0,9.81,0.0,0.0,1.0,0.0,1616653782.8022256,0.0,0.0,0.0
2,-14815.9487127,-20434.4810446,-15542.8449793,-23790.2737296,-18879.1147763,-99.4655039844,nan,nan,nan,0.0,[],[],[],-37.8190095,144.95134133333335,165.0,-37.81868566666667,144.95084,96.1,-35.84156328,143.1362385,63.2729524,-35.96631476,143.3707744,64.82851725,0.0,0.0,0.0,0.0,0.0,9.81,0.0,0.0,1.0,0.0,1616653782.9190314,0.0,0.0,0.0
2,-15054.7330084,-20769.3643034,-15544.48648,-17571.2459843,-17781.4624657,-92.6253526003,nan,nan,nan,0.0,[],[],[],-37.8190095,144.95134133333335,165.0,-37.81868566666667,144.95084,96.1,-35.84156328,143.1362385,63.2729524,-35.96631476,143.3707744,64.82851725,0.0,0.0,0.0,0.0,0.0,9.81,0.0,0.0,1.0,0.0,1616653783.0289128,0.0,0.0,0.0
2,-15046.1445505,-20844.9302843,-15545.1931801,-9750.91399752,-11373.2910154,-72.0835748973,nan,nan,inf,0.0,[],[],[],-37.8190095,144.95134133333335,165.0,-37.81868566666667,144.95084,96.1,-35.84156328,143.1362385,63.2729524,-35.96631476,143.3707744,64.82851725,0.0,0.0,0.0,0.0,0.0,9.81,0.0,0.0,1.0,0.0,1616653783.08678,0.0,0.0,0.0
2,-15119.6262087,-20878.8846694,-15545.3894926,-7509.53572429,-7910.62964849,-52.8828536832,nan,nan,inf,0.0,[],[],[],-37.8190095,144.95134133333335,165.0,-37.81868566666667,144.95084,96.1,-35.84156328,143.1362385,63.2729524,-35.96631476,143.3707744,64.82851725,0.0,0.0,0.0,0.0,0.0,9.81,0.0,0.0,1.0,0.0,1616653783.1350613,0.0,0.0,0.0
2,-15131.5268328,-20882.2836589,-15545.3786894,-5505.7077477,-5630.6771224,-38.7256908641,nan,nan,inf,0.0,[],[],[],-37.8190095,144.95134133333335,165.0,-37.81868566666667,144.95084,96.1,-35.84156328,143.1362385,63.2729524,-35.96631476,143.3707744,64.82851725,0.0,0.0,0.0,0.0,0.0,9.81,0.0,0.0,1.0,0.0,1616653783.1794112,0.0,0.0,0.0
2,-15138.4373107,-20878.1526994,-15545.2986788,-4240.49316125,-4180.63456563,-28.8324006215,nan,nan,inf,0.0,[],[],[],-37.8190095,144.95134133333335,165.0,-37.81868566666667,144.95084,96.1,-35.84156328,143.1362385,63.2729524,-35.96631476,143.3707744,64.82851725,0.0,0.0,0.0,0.0,0.0,9.81,0.0,0.0,1.0,0.0,1616653783.2247622,0.0,0.0,0.0
2,-15141.690551,-20871.5778804,-15545.2017828,-3377.9920418,-3213.84311811,-21.8847084117,nan,nan,-inf,0.0,[],[],[],-37.8190095,144.95134133333335,165.0,-37.81868566666667,144.95084,96.1,-35.84156328,143.1362385,63.2729524,-35.96631476,143.3707744,64.82851725,0.0,0.0,0.0,0.0,0.0,9.81,0.0,0.0,1.0,0.0,1616653783.2648785,0.0,0.0,0.0
2,-15142.8601998,-20864.5133636,-15545.1062204,-2761.58148554,-2541.83008337,-16.8899644768,nan,nan,-inf,0.0,[],[],[],-37.8190095,144.95134133333335,165.0,-37.81868566666667,144.95084,96.1,-35.84156328,143.1362385,63.2729524,-35.96631476,143.3707744,64.82851725,0.0,0.0,0.0,0.0,0.0,9.81,0.0,0.0,1.0,0.0,1616653783.3064935,0.0,0.0,0.0
2,-15142.8583132,-20857.6973184,-15545.0175466,-2304.81846715,-2057.75293892,-13.1972389053,nan,nan,-inf,0.0,[],[],[],-37.8190095,144.95134133333335,165.0,-37.81868566666667,144.95084,96.1,-35.84156328,143.1362385,63.2729524,-35.96631476,143.3707744,64.82851725,0.0,0.0,0.0,0.0,0.0,9.81,0.0,0.0,1.0,0.0,1616653783.347012,0.0,0.0,0.0
2,-15142.1975064,-20851.3873795,-15544.9367386,-1956.34745502,-1698.36536932,-10.3904857555,nan,nan,inf,0.0,[],[],[],-37.8190095,144.95134133333335,165.0,-37.81868566666667,144.95084,96.1,-35.84156328,143.1362385,63.2729524,-35.96631476,143.3707744,64.82851725,0.0,0.0,0.0,0.0,0.0,9.81,0.0,0.0,1.0,0.0,1616653783.3870633,0.0,0.0,0.0
2,-15141.1705781,-20845.645939,-15544.8632095,-1684.01977941,-1424.63088757,-8.20151788676,nan,nan,inf,0.0,[],[],[],-37.8190095,144.95134133333335,165.0,-37.81868566666667,144.95084,96.1,-35.84156328,143.1362385,63.2729524,-35.96631476,143.3707744,64.82851725,0.0,0.0,0.0,0.0,0.0,9.81,0.0,0.0,1.0,0.0,1616653783.4289458,0.0,0.0,0.0
2,-15139.9483079,-20840.4565842,-15544.7959324,-1466.85157936,-1211.52773926,-6.4540021405,nan,nan,inf,0.0,[],[],[],-37.8190095,144.95134133333335,165.0,-37.81868566666667,144.95084,96.1,-35.84156328,143.1362385,63.2729524,-35.96631476,143.3707744,64.82851725,0.0,0.0,0.0,0.0,0.0,9.81,0.0,0.0,1.0,0.0,1616653783.4689708,0.0,0.0,0.0
2,-15138.6320036,-20835.7734333,-15544.7338529,-1290.66158212,-1042.47249266,-5.02931881973,nan,nan,inf,0.0,[],[],[],-37.8190095,144.95134133333335,165.0,-37.81868566666667,144.95084,96.1,-35.84156328,143.1362385,63.2729524,-35.96631476,143.3707744,64.82851725,0.0,0.0,0.0,0.0,0.0,9.81,0.0,0.0,1.0,0.0,1616653783.5081525,0.0,0.0,0.0
2,-15137.2823434,-20831.5423764,-15544.6760279,-1145.57815531,-906.146891594,-3.84584450515,nan,nan,inf,0.0,[],[],[],-37.8190095,144.95134133333335,165.0,-37.818691333333334,144.9508385,94.3,-35.84156328,143.1362385,63.2729524,-35.96631476,143.3707744,64.82851725,0.0,0.0,0.0,0.0,0.0,9.81,0.0,0.0,1.0,0.0,1616653783.548101,0.0,0.0,0.0
2,-15135.923674,-20827.6969337,-15544.6503126,-1024.49175743,-794.55759488,-2.98452445805,nan,nan,inf,0.0,[],[],[],-37.81900183333333,144.95133666666666,166.4,-37.818691333333334,144.9508385,94.3,-35.84156328,143.1362385,63.2729524,-35.96631476,143.3707744,64.82851725,0.0,0.0,0.0,0.0,0.0,9.81,0.0,0.0,1.0,0.0,1616653783.5916045,0.0,0.0,0.0
2,-15134.5963935,-20824.204979,-15544.6219138,-922.356825139,-702.120158349,-2.22019761532,nan,nan,inf,0.0,[],[],[],-37.81900183333333,144.95133666666666,166.4,-37.818691333333334,144.9508385,94.3,-35.84156328,143.1362385,63.2729524,-35.96631476,143.3707744,64.82851725,0.0,0.0,0.0,0.0,0.0,9.81,0.0,0.0,1.0,0.0,1616653783.6314518,0.0,0.0,0.0
2,-15133.3088634,-20821.0215913,-15544.591518,-835.316552372,-624.670811995,-1.53724525079,nan,nan,inf,0.0,[],[],[],-37.81900183333333,144.95133666666666,166.4,-37.818691333333334,144.9508385,94.3,-35.84156328,143.1362385,63.2729524,-35.96631476,143.3707744,64.82851725,0.0,0.0,0.0,0.0,0.0,9.81,0.0,0.0,1.0,0.0,1616653783.6714911,0.0,0.0,0.0
2,-15132.0655812,-20818.1078036,-15544.5596121,-760.457264725,-559.112780084,-0.923151520174,nan,nan,inf,0.0,[],[],[],-37.81900183333333,144.95133666666666,166.4,-37.818691333333334,144.9508385,94.3,-35.84156328,143.1362385,63.2729524,-35.96631476,143.3707744,64.82851725,0.0,0.0,0.0,0.0,0.0,9.81,0.0,0.0,1.0,0.0,1616653783.7125115,0.0,0.0,0.0
2,-15130.868291,-20815.4299519,-15544.5265545,-695.540816527,-503.105106463,-0.367924345849,nan,nan,inf,0.0,[],[],[],-37.81900183333333,144.95133666666666,166.4,-37.818691333333334,144.9508385,94.3,-35.84156328,143.1362385,63.2729524,-35.96631476,143.3707744,64.82851725,0.0,0.0,0.0,0.0,0.0,9.81,0.0,0.0,1.0,0.0,1616653783.7532372,0.0,0.0,0.0
2,-15129.7168305,-20812.9589816,-15544.4926216,-638.822504877,-454.85229635,0.136392632956,nan,nan,inf,0.0,[],[],[],-37.81900183333333,144.95133666666666,166.4,-37.818691333333334,144.9508385,94.3,-35.84156328,143.1362385,63.2729524,-35.96631476,143.3707744,64.82851725,0.0,0.0,0.0,0.0,0.0,9.81,0.0,0.0,1.0,0.0,1616653783.793591,0.0,0.0,0.0
2,-15128.6097392,-20810.6697969,-15544.4580389,-588.924226879,-412.959179977,0.596116273341,nan,nan,inf,0.0,[],[],[],-37.81900183333333,144.95133666666666,166.4,-37.818691333333334,144.9508385,94.3,-35.84156328,143.1362385,63.2729524,-35.96631476,143.3707744,64.82851725,0.0,0.0,0.0,0.0,0.0,9.81,0.0,0.0,1.0,0.0,1616653783.8333669,0.0,0.0,0.0
2,-15127.5446802,-20808.5406867,-15544.4230024,-544.74431454,-376.328922547,1.01624020675,nan,nan,inf,0.0,[],[],[],-37.81900183333333,144.95133666666666,166.4,-37.818691333333334,144.9508385,94.3,-35.84156328,143.1362385,63.2729524,-35.96631476,143.3707744,64.82851725,0.0,0.0,0.0,0.0,0.0,9.81,0.0,0.0,1.0,0.0,1616653783.8714643,0.0,0.0,0.0
2,-15126.5187261,-20806.5528329,-15544.3876932,-505.392296722,-344.090157553,1.40068575509,nan,nan,inf,0.0,[],[],[],-37.81900183333333,144.95133666666666,166.4,-37.818691333333334,144.9508385,94.3,-35.84156328,143.1362385,63.2729524,-35.96631476,143.3707744,64.82851725,0.0,0.0,0.0,0.0,0.0,9.81,0.0,0.0,1.0,0.0,1616653783.9103274,0.0,0.0,0.0
2,-15125.5285471,-20804.6898988,-15544.3522878,-470.140950927,-315.544138996,1.75250102016,nan,nan,inf,0.0,[],[],[],-37.81900183333333,144.95133666666666,166.4,-37.818691333333334,144.9508385,94.3,-35.84156328,143.1362385,63.2729524,-35.96631476,143.3707744,64.82851725,0.0,0.0,0.0,0.0,0.0,9.81,0.0,0.0,1.0,0.0,1616653783.957962,0.0,0.0,0.0
2,-15124.5705317,-20802.9376869,-15544.3169658,-438.390568849,-290.125882197,2.07401952475,nan,nan,inf,0.0,[],[],[],-37.81900183333333,144.95133666666666,166.4,-37.818691333333334,144.9508385,94.3,-35.84156328,143.1362385,63.2729524,-35.96631476,143.3707744,64.82851725,0.0,0.0,0.0,0.0,0.0,9.81,0.0,0.0,1.0,0.0,1616653784.0024796,0.0,0.0,0.0
2,-15123.6408618,-20801.2838588,-15544.2819151,-409.641997716,-267.375224323,2.36698752964,nan,nan,inf,0.0,[],[],[],-37.81900183333333,144.95133666666666,166.4,-37.818691333333334,144.9508385,94.3,-35.84156328,143.1362385,63.2729524,-35.96631476,143.3707744,64.82851725,0.0,0.0,0.0,0.0,0.0,9.81,0.0,0.0,1.0,0.0,1616653784.0470037,0.0,0.0,0.0
2,-15122.7355564,-20799.7177051,-15544.2473358,-383.476092511,-246.915010578,2.63266715992,nan,nan,inf,0.0,[],[],[],-37.81900183333333,144.95133666666666,166.4,-37.818691333333334,144.9508385,94.3,-35.84156328,143.1362385,63.2729524,-35.96631476,143.3707744,64.82851725,0.0,0.0,0.0,0.0,0.0,9.81,0.0,0.0,1.0,0.0,1616653784.0863335,0.0,0.0,0.0
2,-15121.8504994,-20798.2299567,-15544.2134429,-359.53793264,-228.434454292,2.87192083901,nan,nan,inf,0.0,[],[],[],-37.81900183333333,144.95133666666666,166.4,-37.818691333333334,144.9508385,94.3,-35.84156328,143.1362385,63.2729524,-35.96631476,143.3707744,64.82851725,0.0,0.0,0.0,0.0,0.0,9.81,0.0,0.0,1.0,0.0,1616653784.1305804,0.0,0.0,0.0
2,-15120.9814594,-20796.8126285,-15544.1804684,-337.524647313,-211.676283973,3.08528124426,nan,nan,inf,0.0,[],[],[],-37.81900183333333,144.95133666666666,166.4,-37.818691333333334,144.9508385,94.3,-35.84156328,143.1362385,63.2729524,-35.96631476,143.3707744,64.82851725,0.0,0.0,0.0,0.0,0.0,9.81,0.0,0.0,1.0,0.0,1616653784.1834073,0.0,0.0,0.0
2,-15120.1241139,-20795.4588851,-15544.1486625,-317.176034499,-196.42667445,3.27301003148,nan,nan,inf,0.0,[],[],[],-37.81900183333333,144.95133666666666,166.4,-37.818691333333334,144.9508385,94.3,-35.84156328,143.1362385,63.2729524,-35.96631476,143.3707744,64.82851725,0.0,0.0,0.0,0.0,0.0,9.81,0.0,0.0,1.0,0.0,1616653784.2256525,0.0,0.0,0.0
2,-15119.2740862,-20794.162922,-15544.1182942,-298.267396251,-182.507224655,3.4351478982,nan,nan,inf,0.0,[],[],[],-37.81900183333333,144.95133666666666,166.4,-37.818691333333334,144.9508385,94.3,-35.84156328,143.1362385,63.2729524,-35.96631476,143.3707744,64.82851725,0.0,0.0,0.0,0.0,0.0,9.81,0.0,0.0,1.0,0.0,1616653784.2636354,0.0,0.0,0.0
2,-15118.4270058,-20792.9198502,-15544.0896517,-280.604177098,-169.768432658,3.57155814414,nan,nan,inf,0.0,[],[],[],-37.81900183333333,144.95133666666666,166.4,-37.818691333333334,144.9508385,94.3,-35.84156328,143.1362385,63.2729524,-35.96631476,143.3707744,64.82851725,0.0,0.0,0.0,0.0,0.0,9.81,0.0,0.0,1.0,0.0,1616653784.3070416,0.0,0.0,0.0
2,-15117.6128826,-20791.699672,-15544.0631305,-264.139231692,-157.994071129,3.68082905303,nan,nan,inf,0.0,[],[],[],-37.81899583333333,144.95133183333334,167.9,-37.818691333333334,144.9508385,94.3,-35.84156328,143.1362385,63.2729524,-35.96631476,143.3707744,64.82851725,0.0,0.0,0.0,0.0,0.0,9.81,0.0,0.0,1.0,0.0,1616653784.348616,0.0,0.0,0.0
2,-15116.7873449,-20790.5267379,-15544.0389777,-248.583328916,-147.178686763,3.76377799388,nan,nan,inf,0.0,[],[],[],-37.81899583333333,144.95133183333334,167.9,-37.818691333333334,144.9508385,94.3,-35.84156328,143.1362385,63.2729524,-35.96631476,143.3707744,64.82851725,0.0,0.0,0.0,0.0,0.0,9.81,0.0,0.0,1.0,0.0,1616653784.3935955,0.0,0.0,0.0
2,-15115.947761,-20789.3980418,-15544.0175323,-233.816928168,-137.229087835,3.81996929626,nan,nan,inf,0.0,[],[],[],-37.81899583333333,144.95133183333334,167.9,-37.818691333333334,144.9508385,94.3,-35.84156328,143.1362385,63.2729524,-35.96631476,143.3707744,64.82851725,0.0,0.0,0.0,0.0,0.0,9.81,0.0,0.0,1.0,0.0,1616653784.4323025,0.0,0.0,0.0
2,-15115.0918606,-20788.3109703,-15543.9991479,-219.740566406,-128.06350813,3.84893887258,nan,nan,inf,0.0,[],[],[],-37.81899583333333,144.95133183333334,167.9,-37.818691333333334,144.9508385,94.3,-35.84156328,143.1362385,63.2729524,-35.96631476,143.3707744,64.82851725,0.0,0.0,0.0,0.0,0.0,9.81,0.0,0.0,1.0,0.0,1616653784.4719908,0.0,0.0,0.0
2,-15114.2180283,-20787.2631181,-15543.9841891,-206.274735428,-119.608389364,3.85023640806,nan,nan,inf,0.0,[],[],[],-37.81899583333333,144.95133183333334,167.9,-37.818691333333334,144.9508385,94.3,-35.84156328,143.1362385,63.2729524,-35.96631476,143.3707744,64.82851725,0.0,0.0,0.0,0.0,0.0,9.81,0.0,0.0,1.0,0.0,1616653784.511298,0.0,0.0,0.0
2,-15113.3255808,-20786.2521008,-15543.9730265,-193.359729731,-111.795680379,3.82347404069,nan,nan,inf,0.0,[],[],[],-37.81899583333333,144.95133183333334,167.9,-37.8186955,144.95083783333334,92.6,-35.84156328,143.1362385,63.2729524,-35.96631476,143.3707744,64.82851725,0.0,0.0,0.0,0.0,0.0,9.81,0.0,0.0,1.0,0.0,1616653784.5507135,0.0,0.0,0.0
2,-15112.3813894,-20785.298532,-15543.971049,-180.798268621,-104.663614664,3.76017041026,nan,nan,inf,0.0,[],[],[],-37.81899583333333,144.95133183333334,167.9,-37.8186955,144.95083783333334,92.6,-35.84156328,143.1362385,63.2729524,-35.96631476,143.3707744,64.82851725,0.0,0.0,0.0,0.0,0.0,9.81,0.0,0.0,1.0,0.0,1616653784.601052,0.0,0.0,0.0
2,-15111.4263406,-20784.3752404,-15543.97316,-168.755579001,-98.0323918662,3.66972281869,nan,nan,inf,0.0,[],[],[],-37.81899583333333,144.95133183333334,167.9,-37.8186955,144.95083783333334,92.6,-35.84156328,143.1362385,63.2729524,-35.96631476,143.3707744,64.82851725,0.0,0.0,0.0,0.0,0.0,9.81,0.0,0.0,1.0,0.0,1616653784.6422815,0.0,0.0,0.0
2,-15110.4630116,-20783.4788746,-15543.9797462,-157.223098471,-91.8409343262,3.55209790952,nan,nan,inf,0.0,[],[],[],-37.81899583333333,144.95133183333334,167.9,-37.8186955,144.95083783333334,92.6,-35.84156328,143.1362385,63.2729524,-35.96631476,143.3707744,64.82851725,0.0,0.0,0.0,0.0,0.0,9.81,0.0,0.0,1.0,0.0,1616653784.6922903,0.0,0.0,0.0
2,-15109.4951581,-20782.6058037,-15543.9911558,-146.203609323,-86.03081013,3.40760728013,nan,nan,inf,0.0,[],[],[],-37.81899583333333,144.95133183333334,167.9,-37.8186955,144.95083783333334,92.6,-35.84156328,143.1362385,63.2729524,-35.96631476,143.3707744,64.82851725,0.0,0.0,0.0,0.0,0.0,9.81,0.0,0.0,1.0,0.0,1616653784.7323003,0.0,0.0,0.0
2,-15108.5273559,-20781.7522428,-15544.0076881,-135.706553513,-80.5475207148,3.23695386218,nan,nan,inf,0.0,[],[],[],-37.81899583333333,144.95133183333334,167.9,-37.8186955,144.95083783333334,92.6,-35.84156328,143.1362385,63.2729524,-35.96631476,143.3707744,64.82851725,0.0,0.0,0.0,0.0,0.0,9.81,0.0,0.0,1.0,0.0,1616653784.7759483,0.0,0.0,0.0
2,-15107.5645583,-20780.9144461,-15544.0295819,-125.743199621,-75.3421162503,3.04126215956,nan,nan,inf,0.0,[],[],[],-37.81899583333333,144.95133183333334,167.9,-37.8186955,144.95083783333334,92.6,-35.84156328,143.1362385,63.2729524,-35.96631476,143.3707744,64.82851725,0.0,0.0,0.0,0.0,0.0,9.81,0.0,0.0,1.0,0.0,1616653784.8185136,0.0,0.0,0.0
2,-15106.6116373,-20780.0889308,-15544.0570061,-116.322321252,-70.3727332782,2.82208797946,nan,nan,inf,0.0,[],[],[],-37.81899583333333,144.95133183333334,167.9,-37.8186955,144.95083783333334,92.6,-35.84156328,143.1362385,63.2729524,-35.96631476,143.3707744,64.82851725,0.0,0.0,0.0,0.0,0.0,9.81,0.0,0.0,1.0,0.0,1616653784.8723652,0.0,0.0,0.0
2,-15105.6729858,-20779.272694,-15544.0900527,-107.446977144,-65.6056881441,2.58140726178,nan,nan,inf,0.0,[],[],[],-37.81899583333333,144.95133183333334,167.9,-37.8186955,144.95083783333334,92.6,-35.84156328,143.1362385,63.2729524,-35.96631476,143.3707744,64.82851725,0.0,0.0,0.0,0.0,0.0,9.81,0.0,0.0,1.0,0.0,1616653784.912538,0.0,0.0,0.0
2,-15104.7522344,-20778.4633814,-15544.1287321,-99.1127299286,-61.0158722605,2.32158564835,nan,nan,inf,0.0,[],[],[],-37.81899583333333,144.95133183333334,167.9,-37.8186955,144.95083783333334,92.6,-35.84156328,143.1362385,63.2729524,-35.96631476,143.3707744,64.82851725,0.0,0.0,0.0,0.0,0.0,9.81,0.0,0.0,1.0,0.0,1616653784.9513023,0.0,0.0,0.0
2,-15103.8521162,-20777.6593868,-15544.1729703,-91.3073439396,-56.5863995846,2.04533461163,nan,nan,inf,0.0,[],[],[],-37.81899583333333,144.95133183333334,167.9,-37.8186955,144.95083783333334,92.6,-35.84156328,143.1362385,63.2729524,-35.96631476,143.3707744,64.82851725,0.0,0.0,0.0,0.0,0.0,9.81,0.0,0.0,1.0,0.0,1616653784.9957366,0.0,0.0,0.0
2,-15102.9744723,-20776.8598756,-15544.2226092,-84.0116985552,-52.3076110204,1.7556592525,nan,nan,inf,0.0,[],[],[],-37.81899583333333,144.95133183333334,167.9,-37.8186955,144.95083783333334,92.6,-35.84156328,143.1362385,63.2729524,-35.96631476,143.3707744,64.82851725,0.0,0.0,0.0,0.0,0.0,9.81,0.0,0.0,1.0,0.0,1616653785.0348995,0.0,0.0,0.0
2,-15102.120367,-20776.0647392,-15544.2774073,-77.2014839406,-48.1756596127,1.45580261588,nan,nan,inf,0.0,[],[],[],-37.81899583333333,144.95133183333334,167.9,-37.8186955,144.95083783333334,92.6,-35.84156328,143.1362385,63.2729524,-35.96631476,143.3707744,64.82851725,0.0,0.0,0.0,0.0,0.0,9.81,0.0,0.0,1.0,0.0,1616653785.0803237,0.0,0.0,0.0
2,-15101.2902663,-20775.2745001,-15544.3370424,-70.8492075068,-44.1909325851,1.14918959995,nan,nan,inf,0.0,[],[],[],-37.81899583333333,144.95133183333334,167.9,-37.8186955,144.95083783333334,92.6,-35.84156328,143.1362385,63.2729524,-35.96631476,143.3707744,64.82851725,0.0,0.0,0.0,0.0,0.0,9.81,0.0,0.0,1.0,0.0,1616653785.1320374,0.0,0.0,0.0
2,-15100.4842368,-20774.4901893,-15544.4011149,-64.9261156815,-40.3565326461,0.839371783901,nan,nan,inf,0.0,[],[],[],-37.81899583333333,144.95133183333334,167.9,-37.8186955,144.95083783333334,92.6,-35.84156328,143.1362385,63.2729524,-35.96631476,143.3707744,64.82851725,0.0,0.0,0.0,0.0,0.0,9.81,0.0,0.0,1.0,0.0,1616653785.1888876,0.0,0.0,0.0
2,-15099.7021286,-20773.7132158,-15544.4691526,-59.4037720968,-36.676969714,0.529973251112,nan,nan,inf,0.0,[],[],[],-37.81899583333333,144.95133183333334,167.9,-37.8186955,144.95083783333334,92.6,-35.84156328,143.1362385,63.2729524,-35.96631476,143.3707744,64.82851725,0.0,0.0,0.0,0.0,0.0,9.81,0.0,0.0,1.0,0.0,1616653785.2375574,0.0,0.0,0.0
2,-15098.9437219,-20772.9452426,-15544.540616,-54.2551765641,-33.1571358865,0.224636956645,nan,nan,inf,0.0,[],[],[],-37.81899583333333,144.95133183333334,167.9,-37.8186955,144.95083783333334,92.6,-35.84156328,143.1362385,63.2729524,-35.96631476,143.3707744,64.82851725,0.0,0.0,0.0,0.0,0.0,9.81,0.0,0.0,1.0,0.0,1616653785.2797868,0.0,0.0,0.0
2,-15098.2088273,-20772.1880771,-15544.6149055,-49.4554235083,-29.8015722221,-0.0730287103737,nan,nan,inf,0.0,[],[],[],-37.81899583333333,144.95133183333334,167.9,-37.8186955,144.95083783333334,92.6,-35.84156328,143.1362385,63.2729524,-35.96631476,143.3707744,64.82851725,0.0,0.0,0.0,0.0,0.0,9.81,0.0,0.0,1.0,0.0,1616653785.3238218,0.0,0.0,0.0
2,-15097.4973439,-20771.4435808,-15544.6913691,-44.981969974,-26.6139944791,-0.359503040248,nan,nan,inf,0.0,[],[],[],-37.81899583333333,144.95133183333334,167.9,-37.8186955,144.95083783333334,92.6,-35.84156328,143.1362385,63.2729524,-35.96631476,143.3707744,64.82851725,0.0,0.0,0.0,0.0,0.0,9.81,0.0,0.0,1.0,0.0,1616653785.3635952,0.0,0.0,0.0
2,-15096.80928,-20770.7135974,-15544.7693115,-40.8146145367,-23.5970255915,-0.631405079305,nan,nan,inf,0.0,[],[],[],-37.81899583333333,144.95133183333334,167.9,-37.8186955,144.95083783333334,92.6,-35.84156328,143.1362385,63.2729524,-35.96631476,143.3707744,64.82851725,0.0,0.0,0.0,0.0,0.0,9.81,0.0,0.0,1.0,0.0,1616653785.4046478,0.0,0.0,0.0
2,-15096.1447471,-20769.9998976,-15544.8480047,-36.9352903696,-20.7520796071,-0.885543471593,nan,nan,inf,0.0,[],[],[],-37.81899583333333,144.95133183333334,167.9,-37.8186955,144.95083783333334,92.6,-35.84156328,143.1362385,63.2729524,-35.96631476,143.3707744,64.82851725,0.0,0.0,0.0,0.0,0.0,9.81,0.0,0.0,1.0,0.0,1616653785.4472196,0.0,0.0,0.0
2,-15095.5039366,-20769.3041381,-15544.9266982,-33.3277607707,-18.0793483123,-1.11896258911,nan,nan,inf,0.0,[],[],[],-37.81899583333333,144.95133183333334,167.9,-37.8186955,144.95083783333334,92.6,-35.84156328,143.1362385,63.2729524,-35.96631476,143.3707744,64.82851725,0.0,0.0,0.0,0.0,0.0,9.81,0.0,0.0,1.0,0.0,1616653785.4862154,0.0,0.0,0.0
2,-15094.8870874,-20768.6278321,-15545.0046308,-29.9772837551,-15.5778522291,-1.32898342773,nan,nan,inf,0.0,[],[],[],-37.81899583333333,144.95133183333334,167.9,-37.8186955,144.95083783333334,92.6,-35.84156328,143.1362385,63.2729524,-35.96631476,143.3707744,64.82851725,0.0,0.0,0.0,0.0,0.0,9.81,0.0,0.0,1.0,0.0,1616653785.527163,0.0,0.0,0.0
2,-15094.2649726,-20767.9940018,-15545.0879137,-26.7218856473,-13.3436688425,-1.52054232465,nan,nan,inf,0.0,[],[],[],-37.81899583333333,144.95133183333334,167.9,-37.818699,144.9508365,90.7,-35.84156328,143.1362385,63.2729524,-35.96631476,143.3707744,64.82851725,0.0,0.0,0.0,0.0,0.0,9.81,0.0,0.0,1.0,0.0,1616653785.5671415,0.0,0.0,0.0
2,-15093.6751377,-20767.3793853,-15545.1684171,-23.7481674468,-11.2495736591,-1.68284177097,nan,nan,inf,0.0,[],[],[],-37.81899583333333,144.95133183333334,167.9,-37.818699,144.9508365,90.7,-35.84156328,143.1362385,63.2729524,-35.96631476,143.3707744,64.82851725,0.0,0.0,0.0,0.0,0.0,9.81,0.0,0.0,1.0,0.0,1616653785.6073918,0.0,0.0,0.0
2,-15093.1161143,-20766.7853471,-15545.2454615,-21.0313044929,-9.29756754201,-1.81449023928,nan,nan,inf,0.0,[],[],[],-37.81899583333333,144.95133183333334,167.9,-37.818699,144.9508365,90.7,-35.84156328,143.1362385,63.2729524,-35.96631476,143.3707744,64.82851725,0.0,0.0,0.0,0.0,0.0,9.81,0.0,0.0,1.0,0.0,1616653785.650122,0.0,0.0,0.0
2,-15092.7540341,-20766.2293606,-15545.3105115,-19.1529973579,-7.41679511902,-1.8658671953,nan,nan,inf,0.0,[],[],[],-37.8189975,144.95131633333332,168.4,-37.818699,144.9508365,90.7,-35.84156328,143.1362385,63.2729524,-35.96631476,143.3707744,64.82851725,0.0,0.0,0.0,0.0,0.0,9.81,0.0,0.0,1.0,0.0,1616653785.6897078,0.0,0.0,0.0
2,-15092.3899321,-20765.7000512,-15545.3714159,-17.3193967476,-5.72872414279,-1.89249449564,nan,nan,inf,0.0,[],[],[],-37.8189975,144.95131633333332,168.4,-37.818699,144.9508365,90.7,-35.84156328,143.1362385,63.2729524,-35.96631476,143.3707744,64.82851725,0.0,0.0,0.0,0.0,0.0,9.81,0.0,0.0,1.0,0.0,1616653785.7290986,0.0,0.0,0.0
2,-15092.0285869,-20765.1968523,-15545.4276099,-15.5544562173,-4.21406542668,-1.89306114392,nan,nan,inf,0.0,[],[],[],-37.8189975,144.95131633333332,168.4,-37.818699,144.9508365,90.7,-35.84156328,143.1362385,63.2729524,-35.96631476,143.3707744,64.82851725,0.0,0.0,0.0,0.0,0.0,9.81,0.0,0.0,1.0,0.0,1616653785.7738798,0.0,0.0,0.0
2,-15091.673774,-20764.7192149,-15545.4785712,-13.8747622891,-2.85643972557,-1.86667460445,nan,nan,inf,0.0,[],[],[],-37.8189975,144.95131633333332,168.4,-37.818699,144.9508365,90.7,-35.84156328,143.1362385,63.2729524,-35.96631476,143.3707744,64.82851725,0.0,0.0,0.0,0.0,0.0,9.81,0.0,0.0,1.0,0.0,1616653785.8117008,0.0,0.0,0.0
2,-15091.3284203,-20764.2665913,-15545.5238271,-12.2910845357,-1.64175456594,-1.81283616087,nan,nan,inf,0.0,[],[],[],-37.8189975,144.95131633333332,168.4,-37.818699,144.9508365,90.7,-35.84156328,143.1362385,63.2729524,-35.96631476,143.3707744,64.82851725,0.0,0.0,0.0,0.0,0.0,9.81,0.0,0.0,1.0,0.0,1616653785.851817,0.0,0.0,0.0
2,-15090.9947412,-20763.8384208,-15545.5629587,-10.8096562216,-0.557709704055,-1.73141003619,nan,nan,inf,0.0,[],[],[],-37.8189975,144.95131633333332,168.4,-37.818699,144.9508365,90.7,-35.84156328,143.1362385,63.2729524,-35.96631476,143.3707744,64.82851725,0.0,0.0,0.0,0.0,0.0,9.81,0.0,0.0,1.0,0.0,1616653785.8950143,0.0,0.0,0.0
2,-15090.6743594,-20763.4341196,-15545.5956041,-9.43322030383,0.406588090214,-1.62258828363,nan,nan,inf,0.0,[],[],[],-37.8189975,144.95131633333332,168.4,-37.818699,144.9508365,90.7,-35.84156328,143.1362385,63.2729524,-35.96631476,143.3707744,64.82851725,0.0,0.0,0.0,0.0,0.0,9.81,0.0,0.0,1.0,0.0,1616653785.938859,0.0,0.0,0.0
2,-15090.3684073,-20763.053073,-15545.6214593,-8.16187558478,1.26092002649,-1.48685317984,nan,nan,inf,0.0,[],[],[],-37.8189975,144.95131633333332,168.4,-37.818699,144.9508365,90.7,-35.84156328,143.1362385,63.2729524,-35.96631476,143.3707744,64.82851725,0.0,0.0,0.0,0.0,0.0,9.81,0.0,0.0,1.0,0.0,1616653785.9832788,0.0,0.0,0.0
2,-15090.0776143,-20762.694632,-15545.6402787,-6.99375544087,2.01417762723,-1.32493857904,nan,nan,inf,0.0,[],[],[],-37.8189975,144.95131633333332,168.4,-37.818699,144.9508365,90.7,-35.84156328,143.1362385,63.2729524,-35.96631476,143.3707744,64.82851725,0.0,0.0,0.0,0.0,0.0,9.81,0.0,0.0,1.0,0.0,1616653786.0222197,0.0,0.0,0.0
2,-15089.8023813,-20762.3581118,-15545.6518733,-5.92556714359,2.67452864459,-1.13779171807,nan,nan,inf,0.0,[],[],[],-37.8189975,144.95131633333332,168.4,-37.818699,144.9508365,90.7,-35.84156328,143.1362385,63.2729524,-35.96631476,143.3707744,64.82851725,0.0,0.0,0.0,0.0,0.0,9.81,0.0,0.0,1.0,0.0,1616653786.0707884,0.0,0.0,0.0
2,-15089.5428442,-20762.0427936,-15545.6561087,-4.95302141958,3.24953522643,-0.926534938185,nan,nan,inf,0.0,[],[],[],-37.8189975,144.95131633333332,168.4,-37.818699,144.9508365,90.7,-35.84156328,143.1362385,63.2729524,-35.96631476,143.3707744,64.82851725,0.0,0.0,0.0,0.0,0.0,9.81,0.0,0.0,1.0,0.0,1616653786.1201925,0.0,0.0,0.0
2,-15089.2989266,-20761.7479271,-15545.6529024,-4.07116385354,3.74624391905,-0.69243111771,nan,nan,inf,0.0,[],[],[],-37.8189975,144.95131633333332,168.4,-37.818699,144.9508365,90.7,-35.84156328,143.1362385,63.2729524,-35.96631476,143.3707744,64.82851725,0.0,0.0,0.0,0.0,0.0,9.81,0.0,0.0,1.0,0.0,1616653786.171608,0.0,0.0,0.0
2,-15089.0703838,-20761.4727346,-15545.6422204,-3.27463580787,4.1712471286,-0.436850229913,nan,nan,inf,0.0,[],[],[],-37.8189975,144.95131633333332,168.4,-37.818699,144.9508365,90.7,-35.84156328,143.1362385,63.2729524,-35.96631476,143.3707744,64.82851725,0.0,0.0,0.0,0.0,0.0,9.81,0.0,0.0,1.0,0.0,1616653786.2307036,0.0,0.0,0.0
2,-15088.8568408,-20761.2164168,-15545.6240728,-2.55787427886,4.53072743924,-0.161239001133,nan,nan,inf,0.0,[],[],[],-37.8189975,144.95131633333332,168.4,-37.818699,144.9508365,90.7,-35.84156328,143.1362385,63.2729524,-35.96631476,143.3707744,64.82851725,0.0,0.0,0.0,0.0,0.0,9.81,0.0,0.0,1.0,0.0,1616653786.269667,0.0,0.0,0.0
2,-15088.6578234,-20760.9781575,-15545.5985105,-1.91526374925,4.83048914399,0.1329064337,nan,nan,inf,0.0,[],[],[],-37.8189975,144.95131633333332,168.4,-37.818699,144.9508365,90.7,-35.84156328,143.1362385,63.2729524,-35.96631476,143.3707744,64.82851725,0.0,0.0,0.0,0.0,0.0,9.81,0.0,0.0,1.0,0.0,1616653786.3138814,0.0,0.0,0.0
2,-15088.4727837,-20760.7571306,-15545.5656206,-1.34124978805,5.07598100839,0.444064776056,nan,nan,inf,0.0,[],[],[],-37.8189975,144.95131633333332,168.4,-37.818699,144.9508365,90.7,-35.84156328,143.1362385,63.2729524,-35.96631476,143.3707744,64.82851725,0.0,0.0,0.0,0.0,0.0,9.81,0.0,0.0,1.0,0.0,1616653786.3523424,0.0,0.0,0.0
2,-15088.3011214,-20760.5525048,-15545.525522,-0.830422305628,5.27231326648,0.770710708045,nan,nan,inf,0.0,[],[],[],-37.8189975,144.95131633333332,168.4,-37.818699,144.9508365,90.7,-35.84156328,143.1362385,63.2729524,-35.96631476,143.3707744,64.82851725,0.0,0.0,0.0,0.0,0.0,9.81,0.0,0.0,1.0,0.0,1616653786.3960826,0.0,0.0,0.0
2,-15088.142202,-20760.3634496,-15545.4783616,-0.377574855003,5.4242710372,1.11133301481,nan,nan,inf,0.0,[],[],[],-37.8189975,144.95131633333332,168.4,-37.818699,144.9508365,90.7,-35.84156328,143.1362385,63.2729524,-35.96631476,143.3707744,64.82851725,0.0,0.0,0.0,0.0,0.0,9.81,0.0,0.0,1.0,0.0,1616653786.4355078,0.0,0.0,0.0
2,-15087.9953707,-20760.1891404,-15545.4243103,0.0222548682404,5.53632571592,1.46444982513,nan,nan,inf,0.0,[],[],[],-37.8189975,144.95131633333332,168.4,-37.818699,144.9508365,90.7,-35.84156328,143.1362385,63.2729524,-35.96631476,143.3707744,64.82851725,0.0,0.0,0.0,0.0,0.0,9.81,0.0,0.0,1.0,0.0,1616653786.4761932,0.0,0.0,0.0
2,-15087.8599639,-20760.0287632,-15545.3635588,0.37375918418,5.61264540875,1.82862115484,nan,nan,inf,0.0,[],[],[],-37.8189975,144.95131633333332,168.4,-37.818699,144.9508365,90.7,-35.84156328,143.1362385,63.2729524,-35.96631476,143.3707744,64.82851725,0.0,0.0,0.0,0.0,0.0,9.81,0.0,0.0,1.0,0.0,1616653786.5145807,0.0,0.0,0.0
2,-15087.7353192,-20759.8815187,-15545.2963145,0.681345920198,5.65710510937,2.20245896739,nan,nan,inf,0.0,[],[],[],-37.8189975,144.95131633333332,168.4,-37.818699,144.9508365,90.7,-35.84156328,143.1362385,63.2729524,-35.96631476,143.3707744,64.82851725,0.0,0.0,0.0,0.0,0.0,9.81,0.0,0.0,1.0,0.0,1616653786.5534797,0.0,0.0,0.0
2,-15087.5998946,-20759.7662302,-15545.2314809,1.02406399171,5.61374842475,2.57890895502,nan,nan,inf,0.0,[],[],[],-37.8189975,144.95131633333332,168.4,-37.81870333333333,144.95083416666665,89.2,-35.84156328,143.1362385,63.2729524,-35.96631476,143.3707744,64.82851725,0.0,0.0,0.0,0.0,0.0,9.81,0.0,0.0,1.0,0.0,1616653786.5933363,0.0,0.0,0.0
2,-15087.4785925,-20759.6607863,-15545.1600777,1.31019334781,5.55625342549,2.96349310779,nan,nan,inf,0.0,[],[],[],-37.8189975,144.95131633333332,168.4,-37.81870333333333,144.95083416666665,89.2,-35.84156328,143.1362385,63.2729524,-35.96631476,143.3707744,64.82851725,0.0,0.0,0.0,0.0,0.0,9.81,0.0,0.0,1.0,0.0,1616653786.6319754,0.0,0.0,0.0
2,-15087.3699357,-20759.5646251,-15545.0824077,1.54765488577,5.48588839749,3.35475487396,nan,nan,inf,0.0,[],[],[],-37.8189975,144.95131633333332,168.4,-37.81870333333333,144.95083416666665,89.2,-35.84156328,143.1362385,63.2729524,-35.96631476,143.3707744,64.82851725,0.0,0.0,0.0,0.0,0.0,9.81,0.0,0.0,1.0,0.0,1616653786.6698694,0.0,0.0,0.0
2,-15087.2726182,-20759.4771882,-15544.9987706,1.74323074555,5.40398976904,3.75136236821,nan,nan,inf,0.0,[],[],[],-37.8189975,144.95131633333332,168.4,-37.81870333333333,144.95083416666665,89.2,-35.84156328,143.1362385,63.2729524,-35.96631476,143.3707744,64.82851725,0.0,0.0,0.0,0.0,0.0,9.81,0.0,0.0,1.0,0.0,1616653786.7079566,0.0,0.0,0.0
2,-15087.1854818,-20759.397926,-15544.9094609,1.9027433024,5.3119136981,4.15210052596,nan,nan,inf,0.0,[],[],[],-37.8189975,144.95131633333332,168.4,-37.81870333333333,144.95083416666665,89.2,-35.84156328,143.1362385,63.2729524,-35.96631476,143.3707744,64.82851725,0.0,0.0,0.0,0.0,0.0,9.81,0.0,0.0,1.0,0.0,1616653786.7491603,0.0,0.0,0.0
2,-15087.1074961,-20759.3263019,-15544.8147676,2.03120327848,5.21100011703,4.55586354038,nan,nan,inf,0.0,[],[],[],-37.8189975,144.95131633333332,168.4,-37.81870333333333,144.95083416666665,89.2,-35.84156328,143.1362385,63.2729524,-35.96631476,143.3707744,64.82851725,0.0,0.0,0.0,0.0,0.0,9.81,0.0,0.0,1.0,0.0,1616653786.7900844,0.0,0.0,0.0
2,-15087.1768071,-20759.2873826,-15544.6992602,1.78182453976,5.08434849256,5.02233848864,nan,nan,-inf,0.0,[],[],[],-37.8189995,144.95130033333334,169.4,-37.81870333333333,144.95083416666665,89.2,-35.84156328,143.1362385,63.2729524,-35.96631476,143.3707744,64.82851725,0.0,0.0,0.0,0.0,0.0,9.81,0.0,0.0,1.0,0.0,1616653786.8340123,0.0,0.0,0.0
2,-15087.2339473,-20759.2554593,-15544.5806211,1.583031082,4.94237708107,5.48017403193,nan,nan,-inf,0.0,[],[],[],-37.8189995,144.95130033333334,169.4,-37.81870333333333,144.95083416666665,89.2,-35.84156328,143.1362385,63.2729524,-35.96631476,143.3707744,64.82851725,0.0,0.0,0.0,0.0,0.0,9.81,0.0,0.0,1.0,0.0,1616653786.875219,0.0,0.0,0.0
2,-15087.2811009,-20759.2297021,-15544.4589603,1.4246465265,4.78938639264,5.92985131952,nan,nan,inf,0.0,[],[],[],-37.8189995,144.95130033333334,169.4,-37.81870333333333,144.95083416666665,89.2,-35.84156328,143.1362385,63.2729524,-35.96631476,143.3707744,64.82851725,0.0,0.0,0.0,0.0,0.0,9.81,0.0,0.0,1.0,0.0,1616653786.9133909,0.0,0.0,0.0
2,-15087.3200649,-20759.2093741,-15544.3343972,1.29848848503,4.62887696307,6.37175183999,nan,nan,inf,0.0,[],[],[],-37.8189995,144.95130033333334,169.4,-37.81870333333333,144.95083416666665,89.2,-35.84156328,143.1362385,63.2729524,-35.96631476,143.3707744,64.82851725,0.0,0.0,0.0,0.0,0.0,9.81,0.0,0.0,1.0,0.0,1616653786.954148,0.0,0.0,0.0
2,-15087.352317,-20759.1938196,-15544.2070573,1.19798393071,4.46369291165,6.80617858624,nan,nan,inf,0.0,[],[],[],-37.8189995,144.95130033333334,169.4,-37.81870333333333,144.95083416666665,89.2,-35.84156328,143.1362385,63.2729524,-35.96631476,143.3707744,64.82851725,0.0,0.0,0.0,0.0,0.0,9.81,0.0,0.0,1.0,0.0,1616653786.996295,0.0,0.0,0.0
2,-15087.3790714,-20759.1824546,-15544.0770704,1.1178587136,4.29613874493,7.23337316998,nan,nan,inf,0.0,[],[],[],-37.8189995,144.95130033333334,169.4,-37.81870333333333,144.95083416666665,89.2,-35.84156328,143.1362385,63.2729524,-35.96631476,143.3707744,64.82851725,0.0,0.0,0.0,0.0,0.0,9.81,0.0,0.0,1.0,0.0,1616653787.0394154,0.0,0.0,0.0
2,-15087.4013254,-20759.1747577,-15543.9445686,1.05388677227,4.12807464065,7.65352959928,nan,nan,inf,0.0,[],[],[],-37.8189995,144.95130033333334,169.4,-37.81870333333333,144.95083416666665,89.2,-35.84156328,143.1362385,63.2729524,-35.96631476,143.3707744,64.82851725,0.0,0.0,0.0,0.0,0.0,9.81,0.0,0.0,1.0,0.0,1616653787.0843964,0.0,0.0,0.0
2,-15087.4198968,-20759.1702637,-15543.8096852,1.00268746432,3.96099437692,8.06680531312,nan,nan,inf,0.0,[],[],[],-37.8189995,144.95130033333334,169.4,-37.81870333333333,144.95083416666665,89.2,-35.84156328,143.1362385,63.2729524,-35.96631476,143.3707744,64.82851725,0.0,0.0,0.0,0.0,0.0,9.81,0.0,0.0,1.0,0.0,1616653787.132805,0.0,0.0,0.0
2,-15087.4354555,-20759.1685567,-15543.6725528,0.961561722216,3.79608922941,8.47332996646,nan,nan,inf,0.0,[],[],[],-37.8189995,144.95130033333334,169.4,-37.81870333333333,144.95083416666665,89.2,-35.84156328,143.1362385,63.2729524,-35.96631476,143.3707744,64.82851725,0.0,0.0,0.0,0.0,0.0,9.81,0.0,0.0,1.0,0.0,1616653787.1806817,0.0,0.0,0.0
2,-15087.4485496,-20759.1692648,-15543.5333033,0.928359563583,3.63430049375,8.87321237664,nan,nan,inf,0.0,[],[],[],-37.8189995,144.95130033333334,169.4,-37.81870333333333,144.95083416666665,89.2,-35.84156328,143.1362385,63.2729524,-35.96631476,143.3707744,64.82851725,0.0,0.0,0.0,0.0,0.0,9.81,0.0,0.0,1.0,0.0,1616653787.222538,0.0,0.0,0.0
2,-15087.4596267,-20759.1720554,-15543.3920662,0.901372941376,3.4763627631,9.26654597186,nan,nan,inf,0.0,[],[],[],-37.8189995,144.95130033333334,169.4,-37.81870333333333,144.95083416666665,89.2,-35.84156328,143.1362385,63.2729524,-35.96631476,143.3707744,64.82851725,0.0,0.0,0.0,0.0,0.0,9.81,0.0,0.0,1.0,0.0,1616653787.2608473,0.0,0.0,0.0
2,-15087.4690512,-20759.176631,-15543.2489689,0.879249647275,3.32284019974,9.65341278757,nan,nan,inf,0.0,[],[],[],-37.8189995,144.95130033333334,169.4,-37.81870333333333,144.95083416666665,89.2,-35.84156328,143.1362385,63.2729524,-35.96631476,143.3707744,64.82851725,0.0,0.0,0.0,0.0,0.0,9.81,0.0,0.0,1.0,0.0,1616653787.2995694,0.0,0.0,0.0
2,-15087.4771201,-20759.1827258,-15543.1041354,0.86092147173,3.17415449281,10.0338874575,nan,nan,inf,0.0,[],[],[],-37.8189995,144.95130033333334,169.4,-37.81870333333333,144.95083416666665,89.2,-35.84156328,143.1362385,63.2729524,-35.96631476,143.3707744,64.82851725,0.0,0.0,0.0,0.0,0.0,9.81,0.0,0.0,1.0,0.0,1616653787.3437803,0.0,0.0,0.0
2,-15087.4840739,-20759.1901021,-15542.9576867,0.845549409824,3.0306110845,10.4080389068,nan,nan,inf,0.0,[],[],[],-37.8189995,144.95130033333334,169.4,-37.81870333333333,144.95083416666665,89.2,-35.84156328,143.1362385,63.2729524,-35.96631476,143.3707744,64.82851725,0.0,0.0,0.0,0.0,0.0,9.81,0.0,0.0,1.0,0.0,1616653787.3928063,0.0,0.0,0.0
2,-15087.4901075,-20759.1985476,-15542.8097404,0.832477224452,2.89241899576,10.7759324539,nan,nan,inf,0.0,[],[],[],-37.8189995,144.95130033333334,169.4,-37.81870333333333,144.95083416666665,89.2,-35.84156328,143.1362385,63.2729524,-35.96631476,143.3707744,64.82851725,0.0,0.0,0.0,0.0,0.0,9.81,0.0,0.0,1.0,0.0,1616653787.4324613,0.0,0.0,0.0
2,-15087.4953777,-20759.2078728,-15542.6604103,0.821194472265,2.75970781737,11.1376311456,nan,nan,inf,0.0,[],[],[],-37.8189995,144.95130033333334,169.4,-37.81870333333333,144.95083416666665,89.2,-35.84156328,143.1362385,63.2729524,-35.96631476,143.3707744,64.82851725,0.0,0.0,0.0,0.0,0.0,9.81,0.0,0.0,1.0,0.0,1616653787.4812276,0.0,0.0,0.0
2,-15087.5000107,-20759.2179088,-15542.5098068,0.811306665224,2.63254188323,11.4931966988,nan,nan,inf,0.0,[],[],[],-37.8189995,144.95130033333334,169.4,-37.81870333333333,144.95083416666665,89.2,-35.84156328,143.1362385,63.2729524,-35.96631476,143.3707744,64.82851725,0.0,0.0,0.0,0.0,0.0,9.81,0.0,0.0,1.0,0.0,1616653787.5212846,0.0,0.0,0.0
2,-15087.5041074,-20759.2285052,-15542.3580366,0.802511214371,2.51093211036,11.8426901379,nan,nan,inf,0.0,[],[],[],-37.8189995,144.95130033333334,169.4,-37.81870633333333,144.95083266666666,87.3,-35.84156328,143.1362385,63.2729524,-35.96631476,143.3707744,64.82851725,0.0,0.0,0.0,0.0,0.0,9.81,0.0,0.0,1.0,0.0,1616653787.5686662,0.0,0.0,0.0
2,-15087.4965519,-20759.250173,-15542.209569,0.823398938827,2.37088837565,12.1837433354,nan,nan,inf,0.0,[],[],[],-37.8189995,144.95130033333334,169.4,-37.81870633333333,144.95083266666666,87.3,-35.84156328,143.1362385,63.2729524,-35.96631476,143.3707744,64.82851725,0.0,0.0,0.0,0.0,0.0,9.81,0.0,0.0,1.0,0.0,1616653787.6104944,0.0,0.0,0.0
2,-15087.490496,-20759.2714299,-15542.0599245,0.838890455898,2.2394981261,12.5191871329,nan,nan,inf,0.0,[],[],[],-37.8189995,144.95130033333334,169.4,-37.81870633333333,144.95083266666666,87.3,-35.84156328,143.1362385,63.2729524,-35.96631476,143.3707744,64.82851725,0.0,0.0,0.0,0.0,0.0,9.81,0.0,0.0,1.0,0.0,1616653787.650773,0.0,0.0,0.0
2,-15087.4857176,-20759.2922225,-15541.9092257,0.849869270284,2.11628005113,12.8490036145,nan,nan,inf,0.0,[],[],[],-37.8189995,144.95130033333334,169.4,-37.81870633333333,144.95083266666666,87.3,-35.84156328,143.1362385,63.2729524,-35.96631476,143.3707744,64.82851725,0.0,0.0,0.0,0.0,0.0,9.81,0.0,0.0,1.0,0.0,1616653787.6901653,0.0,0.0,0.0
2,-15087.482022,-20759.3125049,-15541.7575882,0.857094000363,2.00078053115,13.1731894078,nan,nan,inf,0.0,[],[],[],-37.8189995,144.95130033333334,169.4,-37.81870633333333,144.95083266666666,87.3,-35.84156328,143.1362385,63.2729524,-35.96631476,143.3707744,64.82851725,0.0,0.0,0.0,0.0,0.0,9.81,0.0,0.0,1.0,0.0,1616653787.7288942,0.0,0.0,0.0
2,-15087.4792386,-20759.3322385,-15541.6051219,0.861215478406,1.89257123036,13.4917532691,nan,nan,inf,0.0,[],[],[],-37.8189995,144.95130033333334,169.4,-37.81870633333333,144.95083266666666,87.3,-35.84156328,143.1362385,63.2729524,-35.96631476,143.3707744,64.82851725,0.0,0.0,0.0,0.0,0.0,9.81,0.0,0.0,1.0,0.0,1616653787.7701013,0.0,0.0,0.0
2,-15087.477218,-20759.3513911,-15541.4519307,0.862791441996,1.79124706035,13.8047139853,nan,nan,inf,0.0,[],[],[],-37.8189995,144.95130033333334,169.4,-37.81870633333333,144.95083266666666,87.3,-35.84156328,143.1362385,63.2729524,-35.96631476,143.3707744,64.82851725,0.0,0.0,0.0,0.0,0.0,9.81,0.0,0.0,1.0,0.0,1616653787.8083081,0.0,0.0,0.0
2,-15087.4758294,-20759.3699363,-15541.2981139,0.862299172925,1.69642444181,14.112098555,nan,nan,inf,0.0,[],[],[],-37.8189995,144.95130033333334,169.4,-37.81870633333333,144.95083266666666,87.3,-35.84156328,143.1362385,63.2729524,-35.96631476,143.3707744,64.82851725,0.0,0.0,0.0,0.0,0.0,9.81,0.0,0.0,1.0,0.0,1616653787.8460867,0.0,0.0,0.0
2,-15087.4749587,-20759.3878533,-15541.1437658,0.860146384278,1.60773980589,14.4139406168,nan,nan,inf,0.0,[],[],[],-37.8189995,144.95130033333334,169.4,-37.81870633333333,144.95083266666666,87.3,-35.84156328,143.1362385,63.2729524,-35.96631476,143.3707744,64.82851725,0.0,0.0,0.0,0.0,0.0,9.81,0.0,0.0,1.0,0.0,1616653787.8880947,0.0,0.0,0.0
2,-15087.4745062,-20759.4051261,-15540.9889767,0.856680609987,1.52484828893,14.7102790959,nan,nan,inf,0.0,[],[],[],-37.8189995,144.95130033333334,169.4,-37.81870633333333,144.95083266666666,87.3,-35.84156328,143.1362385,63.2729524,-35.96631476,143.3707744,64.82851725,0.0,0.0,0.0,0.0,0.0,9.81,0.0,0.0,1.0,0.0,1616653787.9294875,0.0,0.0,0.0
2,-15087.4743852,-20759.4217431,-15540.8338333,0.852197312219,1.44742258347,15.001157043,nan,nan,inf,0.0,[],[],[],-37.8189995,144.95130033333334,169.4,-37.81870633333333,144.95083266666666,87.3,-35.84156328,143.1362385,63.2729524,-35.96631476,143.3707744,64.82851725,0.0,0.0,0.0,0.0,0.0,9.81,0.0,0.0,1.0,0.0,1616653787.9682074,0.0,0.0,0.0
2,-15087.5739531,-20759.4513758,-15540.6658459,0.659277583428,1.36564094106,15.3213621485,nan,nan,-inf,0.0,[],[],[],-37.818999,144.95128516666668,170.4,-37.81870633333333,144.95083266666666,87.3,-35.84156328,143.1362385,63.2729524,-35.96631476,143.3707744,64.82851725,0.0,0.0,0.0,0.0,0.0,9.81,0.0,0.0,1.0,0.0,1616653788.0090272,0.0,0.0,0.0
2,-15087.6627333,-20759.4803555,-15540.4990044,0.495779973351,1.28661721457,15.6312260751,nan,nan,-inf,0.0,[],[],[],-37.818999,144.95128516666668,170.4,-37.81870633333333,144.95083266666666,87.3,-35.84156328,143.1362385,63.2729524,-35.96631476,143.3707744,64.82851725,0.0,0.0,0.0,0.0,0.0,9.81,0.0,0.0,1.0,0.0,1616653788.0482476,0.0,0.0,0.0
2,-15087.741936,-20759.5085918,-15540.3332622,0.35772046837,1.21070186144,15.9313867561,nan,nan,-inf,0.0,[],[],[],-37.818999,144.95128516666668,170.4,-37.81870633333333,144.95083266666666,87.3,-35.84156328,143.1362385,63.2729524,-35.96631476,143.3707744,64.82851725,0.0,0.0,0.0,0.0,0.0,9.81,0.0,0.0,1.0,0.0,1616653788.0977976,0.0,0.0,0.0
2,-15087.8126236,-20759.5360121,-15540.1685828,0.24166308596,1.138142515,16.2224121923,nan,nan,-inf,0.0,[],[],[],-37.818999,144.95128516666668,170.4,-37.81870633333333,144.95083266666666,87.3,-35.84156328,143.1362385,63.2729524,-35.96631476,143.3707744,64.82851725,0.0,0.0,0.0,0.0,0.0,9.81,0.0,0.0,1.0,0.0,1616653788.14777,0.0,0.0,0.0
2,-15087.8757305,-20759.5625597,-15540.0049388,0.144641254256,1.0691025677,16.5048091052,nan,nan,-inf,0.0,[],[],[],-37.818999,144.95128516666668,170.4,-37.81870633333333,144.95083266666666,87.3,-35.84156328,143.1362385,63.2729524,-35.96631476,143.3707744,64.82851725,0.0,0.0,0.0,0.0,0.0,9.81,0.0,0.0,1.0,0.0,1616653788.1981108,0.0,0.0,0.0
2,-15087.9320793,-20759.5881914,-15539.8423106,0.0640909649056,1.00367668903,16.7790304214,nan,nan,inf,0.0,[],[],[],-37.818999,144.95128516666668,170.4,-37.81870633333333,144.95083266666666,87.3,-35.84156328,143.1362385,63.2729524,-35.96631476,143.3707744,64.82851725,0.0,0.0,0.0,0.0,0.0,9.81,0.0,0.0,1.0,0.0,1616653788.2490716,0.0,0.0,0.0
2,-15087.9823954,-20759.6128758,-15539.6806856,-0.00220614205265,0.941903780664,17.0454817615,nan,nan,inf,0.0,[],[],[],-37.818999,144.95128516666668,170.4,-37.81870633333333,144.95083266666666,87.3,-35.84156328,143.1362385,63.2729524,-35.96631476,143.3707744,64.82851725,0.0,0.0,0.0,0.0,0.0,9.81,0.0,0.0,1.0,0.0,1616653788.2885385,0.0,0.0,0.0
2,-15088.0273197,-20759.6365915,-15539.5200572,-0.0561713011515,0.88377778675,17.3045270778,nan,nan,inf,0.0,[],[],[],-37.818999,144.95128516666668,170.4,-37.81870633333333,144.95083266666666,87.3,-35.84156328,143.1362385,63.2729524,-35.96631476,143.3707744,64.82851725,0.0,0.0,0.0,0.0,0.0,9.81,0.0,0.0,1.0,0.0,1616653788.3285286,0.0,0.0,0.0
2,-15088.0674189,-20759.6593259,-15539.360424,-0.0994700426328,0.829256707989,17.5564935657,nan,nan,inf,0.0,[],[],[],-37.818999,144.95128516666668,170.4,-37.81870633333333,144.95083266666666,87.3,-35.84156328,143.1362385,63.2729524,-35.96631476,143.3707744,64.82851725,0.0,0.0,0.0,0.0,0.0,9.81,0.0,0.0,1.0,0.0,1616653788.3674042,0.0,0.0,0.0
2,-15088.1031949,-20759.6810735,-15539.2017896,-0.133547594916,0.778270110236,17.8016759509,nan,nan,inf,0.0,[],[],[],-37.818999,144.95128516666668,170.4,-37.81870633333333,144.95083266666666,87.3,-35.84156328,143.1362385,63.2729524,-35.96631476,143.3707744,64.82851725,0.0,0.0,0.0,0.0,0.0,9.81,0.0,0.0,1.0,0.0,1616653788.40693,0.0,0.0,0.0
2,-15088.1350931,-20759.7018356,-15539.0441614,-0.159659179288,0.730725370726,18.0403402406,nan,nan,inf,0.0,[],[],[],-37.818999,144.95128516666668,170.4,-37.81870633333333,144.95083266666666,87.3,-35.84156328,143.1362385,63.2729524,-35.96631476,143.3707744,64.82851725,0.0,0.0,0.0,0.0,0.0,9.81,0.0,0.0,1.0,0.0,1616653788.4448392,0.0,0.0,0.0
2,-15088.1635093,-20759.7216187,-15538.8875505,-0.178895963926,0.68651286524,18.2727270149,nan,nan,inf,0.0,[],[],[],-37.818999,144.95128516666668,170.4,-37.81870633333333,144.95083266666666,87.3,-35.84156328,143.1362385,63.2729524,-35.96631476,143.3707744,64.82851725,0.0,0.0,0.0,0.0,0.0,9.81,0.0,0.0,1.0,0.0,1616653788.484062,0.0,0.0,0.0
2,-15088.1887952,-20759.7404336,-15538.7319713,-0.1922069961,0.64551057527,18.4990541819,nan,nan,inf,0.0,[],[],[],-37.818999,144.95128516666668,170.4,-37.81870633333333,144.95083266666666,87.3,-35.84156328,143.1362385,63.2729524,-35.96631476,143.3707744,64.82851725,0.0,0.0,0.0,0.0,0.0,9.81,0.0,0.0,1.0,0.0,1616653788.5311077,0.0,0.0,0.0
2,-15088.2112648,-20759.7582956,-15538.5774408,-0.200419339625,0.607586690897,18.719519957,nan,nan,inf,0.0,[],[],[],-37.818999,144.95128516666668,170.4,-37.818711,144.9508295,85.6,-35.84156328,143.1362385,63.2729524,-35.96631476,143.3707744,64.82851725,0.0,0.0,0.0,0.0,0.0,9.81,0.0,0.0,1.0,0.0,1616653788.574379,0.0,0.0,0.0
2,-15088.2220633,-20759.7879591,-15538.4324028,-0.184840833719,0.550810025248,18.929129341,nan,nan,inf,0.0,[],[],[],-37.818999,144.95128516666668,170.4,-37.818711,144.9508295,85.6,-35.84156328,143.1362385,63.2729524,-35.96631476,143.3707744,64.82851725,0.0,0.0,0.0,0.0,0.0,9.81,0.0,0.0,1.0,0.0,1616653788.617191,0.0,0.0,0.0
2,-15088.2319353,-20759.8160576,-15538.2882349,-0.168949960072,0.499005614021,19.1334602269,nan,nan,inf,0.0,[],[],[],-37.818999,144.95128516666668,170.4,-37.818711,144.9508295,85.6,-35.84156328,143.1362385,63.2729524,-35.96631476,143.3707744,64.82851725,0.0,0.0,0.0,0.0,0.0,9.81,0.0,0.0,1.0,0.0,1616653788.6579118,0.0,0.0,0.0
2,-15088.2409428,-20759.8426477,-15538.1449776,-0.15282573753,0.451837712832,19.3326277354,nan,nan,inf,0.0,[],[],[],-37.818999,144.95128516666668,170.4,-37.818711,144.9508295,85.6,-35.84156328,143.1362385,63.2729524,-35.96631476,143.3707744,64.82851725,0.0,0.0,0.0,0.0,0.0,9.81,0.0,0.0,1.0,0.0,1616653788.7021768,0.0,0.0,0.0
2,-15088.2491435,-20759.8677859,-15538.002671,-0.136538180832,0.408988609147,19.5267407701,nan,nan,inf,0.0,[],[],[],-37.818999,144.95128516666668,170.4,-37.818711,144.9508295,85.6,-35.84156328,143.1362385,63.2729524,-35.96631476,143.3707744,64.82851725,0.0,0.0,0.0,0.0,0.0,9.81,0.0,0.0,1.0,0.0,1616653788.7465818,0.0,0.0,0.0
2,-15088.2565909,-20759.8915285,-15537.8613545,-0.120149566378,0.370157920317,19.7159025292,nan,nan,inf,0.0,[],[],[],-37.818999,144.95128516666668,170.4,-37.818711,144.9508295,85.6,-35.84156328,143.1362385,63.2729524,-35.96631476,143.3707744,64.82851725,0.0,0.0,0.0,0.0,0.0,9.81,0.0,0.0,1.0,0.0,1616653788.7916508,0.0,0.0,0.0
2,-15088.2633348,-20759.9139308,-15537.7210668,-0.103715498129,0.335061878879,19.9002109875,nan,nan,inf,0.0,[],[],[],-37.818999,144.95128516666668,170.4,-37.818711,144.9508295,85.6,-35.84156328,143.1362385,63.2729524,-35.96631476,143.3707744,64.82851725,0.0,0.0,0.0,0.0,0.0,9.81,0.0,0.0,1.0,0.0,1616653788.832317,0.0,0.0,0.0
2,-15088.269422,-20759.9350478,-15537.5818463,-0.0872858057499,0.303432613779,20.0797593521,nan,nan,inf,0.0,[],[],[],-37.818999,144.95128516666668,170.4,-37.818711,144.9508295,85.6,-35.84156328,143.1362385,63.2729524,-35.96631476,143.3707744,64.82851725,0.0,0.0,0.0,0.0,0.0,9.81,0.0,0.0,1.0,0.0,1616653788.8725836,0.0,0.0,0.0
2,-15088.2748961,-20759.9549333,-15537.4437303,-0.0709053020738,0.275017434535,20.2546364923,nan,nan,inf,0.0,[],[],[],-37.81899833333333,144.95126933333333,171.6,-37.818711,144.9508295,85.6,-35.84156328,143.1362385,63.2729524,-35.96631476,143.3707744,64.82851725,0.0,0.0,0.0,0.0,0.0,9.81,0.0,0.0,1.0,0.0,1616653788.912679,0.0,0.0,0.0
2,-15088.3665307,-20759.9866129,-15537.2959604,-0.1888578863,0.238585229999,20.4493316235,nan,nan,-inf,0.0,[],[],[],-37.81899833333333,144.95126933333333,171.6,-37.818711,144.9508295,85.6,-35.84156328,143.1362385,63.2729524,-35.96631476,143.3707744,64.82851725,0.0,0.0,0.0,0.0,0.0,9.81,0.0,0.0,1.0,0.0,1616653788.9553049,0.0,0.0,0.0
2,-15088.4496754,-20760.016998,-15537.1504368,-0.289205909828,0.204413018447,20.6363738485,nan,nan,-inf,0.0,[],[],[],-37.81899833333333,144.95126933333333,171.6,-37.818711,144.9508295,85.6,-35.84156328,143.1362385,63.2729524,-35.96631476,143.3707744,64.82851725,0.0,0.0,0.0,0.0,0.0,9.81,0.0,0.0,1.0,0.0,1616653789.0030174,0.0,0.0,0.0
2,-15088.5251294,-20760.0461053,-15537.0071061,-0.374024498026,0.172499386314,20.8161686901,nan,nan,-inf,0.0,[],[],[],-37.81899833333333,144.95126933333333,171.6,-37.818711,144.9508295,85.6,-35.84156328,143.1362385,63.2729524,-35.96631476,143.3707744,64.82851725,0.0,0.0,0.0,0.0,0.0,9.81,0.0,0.0,1.0,0.0,1616653789.0429294,0.0,0.0,0.0
2,-15088.5936116,-20760.0739557,-15536.8659221,-0.445150170849,0.142819789367,20.9890847986,nan,nan,-inf,0.0,[],[],[],-37.81899833333333,144.95126933333333,171.6,-37.818711,144.9508295,85.6,-35.84156328,143.1362385,63.2729524,-35.96631476,143.3707744,64.82851725,0.0,0.0,0.0,0.0,0.0,9.81,0.0,0.0,1.0,0.0,1616653789.0847683,0.0,0.0,0.0
2,-15088.6557699,-20760.1005743,-15536.726845,-0.504209330462,0.115331016348,21.1554580378,nan,nan,-inf,0.0,[],[],[],-37.81899833333333,144.95126933333333,171.6,-37.818711,144.9508295,85.6,-35.84156328,143.1362385,63.2729524,-35.96631476,143.3707744,64.82851725,0.0,0.0,0.0,0.0,0.0,9.81,0.0,0.0,1.0,0.0,1616653789.1283882,0.0,0.0,0.0
2,-15088.7121882,-20760.1259889,-15536.5898404,-0.552643175461,0.0899749703759,21.3155951072,nan,nan,-inf,0.0,[],[],[],-37.81899833333333,144.95126933333333,171.6,-37.818711,144.9508295,85.6,-35.84156328,143.1362385,63.2729524,-35.96631476,143.3707744,64.82851725,0.0,0.0,0.0,0.0,0.0,9.81,0.0,0.0,1.0,0.0,1616653789.1703012,0.0,0.0,0.0
2,-15088.7633939,-20760.1502305,-15536.4548789,-0.591729513939,0.0666818673884,21.4697767554,nan,nan,-inf,0.0,[],[],[],-37.81899833333333,144.95126933333333,171.6,-37.818711,144.9508295,85.6,-35.84156328,143.1362385,63.2729524,-35.96631476,143.3707744,64.82851725,0.0,0.0,0.0,0.0,0.0,9.81,0.0,0.0,1.0,0.0,1616653789.2147686,0.0,0.0,0.0
2,-15088.8098632,-20760.1733318,-15536.3219353,-0.622601881762,0.0453729364282,21.6182606362,nan,nan,-inf,0.0,[],[],[],-37.81899833333333,144.95126933333333,171.6,-37.818711,144.9508295,85.6,-35.84156328,143.1362385,63.2729524,-35.96631476,143.3707744,64.82851725,0.0,0.0,0.0,0.0,0.0,9.81,0.0,0.0,1.0,0.0,1616653789.257281,0.0,0.0,0.0
2,-15088.8520271,-20760.1953273,-15536.1909879,-0.646266316056,0.0259626941402,21.7612838477,nan,nan,inf,0.0,[],[],[],-37.81899833333333,144.95126933333333,171.6,-37.818711,144.9508295,85.6,-35.84156328,143.1362385,63.2729524,-35.96631476,143.3707744,64.82851725,0.0,0.0,0.0,0.0,0.0,9.81,0.0,0.0,1.0,0.0,1616653789.296097,0.0,0.0,0.0
2,-15088.8902758,-20760.216253,-15536.0620185,-0.663616086105,0.00836085542531,21.8990651948,nan,nan,inf,0.0,[],[],[],-37.81899833333333,144.95126933333333,171.6,-37.818711,144.9508295,85.6,-35.84156328,143.1362385,63.2729524,-35.96631476,143.3707744,64.82851725,0.0,0.0,0.0,0.0,0.0,9.81,0.0,0.0,1.0,0.0,1616653789.335228,0.0,0.0,0.0
2,-15088.9249626,-20760.2361456,-15535.9350114,-0.675444642749,-0.00752606677306,22.0318072041,nan,nan,inf,0.0,[],[],[],-37.81899833333333,144.95126933333333,171.6,-37.818711,144.9508295,85.6,-35.84156328,143.1362385,63.2729524,-35.96631476,143.3707744,64.82851725,0.0,0.0,0.0,0.0,0.0,9.81,0.0,0.0,1.0,0.0,1616653789.3772244,0.0,0.0,0.0
2,-15088.9564083,-20760.2550426,-15535.8099531,-0.682457012324,-0.0217934271879,22.1596979218,nan,nan,inf,0.0,[],[],[],-37.81899833333333,144.95126933333333,171.6,-37.818711,144.9508295,85.6,-35.84156328,143.1362385,63.2729524,-35.96631476,143.3707744,64.82851725,0.0,0.0,0.0,0.0,0.0,9.81,0.0,0.0,1.0,0.0,1616653789.4189055,0.0,0.0,0.0
2,-15088.984904,-20760.272982,-15535.6868324,-0.685279831014,-0.034537340584,22.2829125183,nan,nan,inf,0.0,[],[],[],-37.81899833333333,144.95126933333333,171.6,-37.818711,144.9508295,85.6,-35.84156328,143.1362385,63.2729524,-35.96631476,143.3707744,64.82851725,0.0,0.0,0.0,0.0,0.0,9.81,0.0,0.0,1.0,0.0,1616653789.4574687,0.0,0.0,0.0
2,-15089.0107143,-20760.290002,-15535.5656395,-0.684470189596,-0.0458537674447,22.4016147203,nan,nan,inf,0.0,[],[],[],-37.81899833333333,144.95126933333333,171.6,-37.818711,144.9508295,85.6,-35.84156328,143.1362385,63.2729524,-35.96631476,143.3707744,64.82851725,0.0,0.0,0.0,0.0,0.0,9.81,0.0,0.0,1.0,0.0,1616653789.4970355,0.0,0.0,0.0
2,-15089.0340798,-20760.3061407,-15535.4463657,-0.680523436295,-0.0558377644134,22.5159580911,nan,nan,inf,0.0,[],[],[],-37.81899833333333,144.95126933333333,171.6,-37.818711,144.9508295,85.6,-35.84156328,143.1362385,63.2729524,-35.96631476,143.3707744,64.82851725,0.0,0.0,0.0,0.0,0.0,9.81,0.0,0.0,1.0,0.0,1616653789.5349686,0.0,0.0,0.0
2,-15089.0552196,-20760.3214363,-15535.3290037,-0.673880066168,-0.0645828750227,22.6260871731,nan,nan,inf,0.0,[],[],[],-37.81899833333333,144.95126933333333,171.6,-37.818715833333336,144.95083033333333,84.8,-35.84156328,143.1362385,63.2729524,-35.96631476,143.3707744,64.82851725,0.0,0.0,0.0,0.0,0.0,9.81,0.0,0.0,1.0,0.0,1616653789.5730984,0.0,0.0,0.0
2,-15089.0491476,-20760.3498091,-15535.2112477,-0.627645020092,-0.093516270886,22.7338444909,nan,nan,inf,0.0,[],[],[],-37.81899833333333,144.95126933333333,171.6,-37.818715833333336,144.95083033333333,84.8,-35.84156328,143.1362385,63.2729524,-35.96631476,143.3707744,64.82851725,0.0,0.0,0.0,0.0,0.0,9.81,0.0,0.0,1.0,0.0,1616653789.6165602,0.0,0.0,0.0
2,-15089.0437203,-20760.3767555,-15535.0952996,-0.584396125796,-0.119473295776,22.8378567974,nan,nan,inf,0.0,[],[],[],-37.81899833333333,144.95126933333333,171.6,-37.818715833333336,144.95083033333333,84.8,-35.84156328,143.1362385,63.2729524,-35.96631476,143.3707744,64.82851725,0.0,0.0,0.0,0.0,0.0,9.81,0.0,0.0,1.0,0.0,1616653789.6567278,0.0,0.0,0.0
2,-15089.038873,-20760.4023449,-15534.9811739,-0.543902159118,-0.14269378068,22.9381984273,nan,nan,inf,0.0,[],[],[],-37.819001,144.951254,172.7,-37.818715833333336,144.95083033333333,84.8,-35.84156328,143.1362385,63.2729524,-35.96631476,143.3707744,64.82851725,0.0,0.0,0.0,0.0,0.0,9.81,0.0,0.0,1.0,0.0,1616653789.6989965,0.0,0.0,0.0
2,-15089.1113642,-20760.4478601,-15534.858983,-0.606615638777,-0.186009522914,23.0541808063,nan,nan,-inf,0.0,[],[],[],-37.819001,144.951254,172.7,-37.818715833333336,144.95083033333333,84.8,-35.84156328,143.1362385,63.2729524,-35.96631476,143.3707744,64.82851725,0.0,0.0,0.0,0.0,0.0,9.81,0.0,0.0,1.0,0.0,1616653789.7448132,0.0,0.0,0.0
2,-15089.1784229,-20760.4915752,-15534.7395295,-0.660442514453,-0.226138835047,23.1644101793,nan,nan,-inf,0.0,[],[],[],-37.819001,144.951254,172.7,-37.818715833333336,144.95083033333333,84.8,-35.84156328,143.1362385,63.2729524,-35.96631476,143.3707744,64.82851725,0.0,0.0,0.0,0.0,0.0,9.81,0.0,0.0,1.0,0.0,1616653789.795355,0.0,0.0,0.0
2,-15089.2404864,-20760.5335494,-15534.6227571,-0.706323852242,-0.263246456271,23.269167222,nan,nan,-inf,0.0,[],[],[],-37.819001,144.951254,172.7,-37.818715833333336,144.95083033333333,84.8,-35.84156328,143.1362385,63.2729524,-35.96631476,143.3707744,64.82851725,0.0,0.0,0.0,0.0,0.0,9.81,0.0,0.0,1.0,0.0,1616653789.8352678,0.0,0.0,0.0
2,-15089.2979543,-20760.5738417,-15534.5086125,-0.745106134323,-0.297494505616,23.3687152605,nan,nan,inf,0.0,[],[],[],-37.819001,144.951254,172.7,-37.818715833333336,144.95083033333333,84.8,-35.84156328,143.1362385,63.2729524,-35.96631476,143.3707744,64.82851725,0.0,0.0,0.0,0.0,0.0,9.81,0.0,0.0,1.0,0.0,1616653789.8751488,0.0,0.0,0.0
2,-15089.3511923,-20760.6125109,-15534.3970445,-0.777551259469,-0.329041951484,23.4633019578,nan,nan,inf,0.0,[],[],[],-37.819001,144.951254,172.7,-37.818715833333336,144.95083033333333,84.8,-35.84156328,143.1362385,63.2729524,-35.96631476,143.3707744,64.82851725,0.0,0.0,0.0,0.0,0.0,9.81,0.0,0.0,1.0,0.0,1616653789.919315,0.0,0.0,0.0
2,-15089.4005357,-20760.6496153,-15534.2880041,-0.804345259484,-0.358044028903,23.5531607595,nan,nan,inf,0.0,[],[],[],-37.819001,144.951254,172.7,-37.818715833333336,144.95083033333333,84.8,-35.84156328,143.1362385,63.2729524,-35.96631476,143.3707744,64.82851725,0.0,0.0,0.0,0.0,0.0,9.81,0.0,0.0,1.0,0.0,1616653789.9638748,0.0,0.0,0.0
2,-15089.4462915,-20760.6852126,-15534.181444,-0.826106067249,-0.384651776928,23.6385121915,nan,nan,inf,0.0,[],[],[],-37.819001,144.951254,172.7,-37.818715833333336,144.95083033333333,84.8,-35.84156328,143.1362385,63.2729524,-35.96631476,143.3707744,64.82851725,0.0,0.0,0.0,0.0,0.0,9.81,0.0,0.0,1.0,0.0,1616653790.0058372,0.0,0.0,0.0
2,-15089.4887416,-20760.71936,-15534.0773185,-0.843390445673,-0.409011678786,23.7195650251,nan,nan,inf,0.0,[],[],[],-37.819001,144.951254,172.7,-37.818715833333336,144.95083033333333,84.8,-35.84156328,143.1362385,63.2729524,-35.96631476,143.3707744,64.82851725,0.0,0.0,0.0,0.0,0.0,9.81,0.0,0.0,1.0,0.0,1616653790.0502827,0.0,0.0,0.0
2,-15089.5281448,-20760.7521136,-15533.9755829,-0.856700173499,-0.431265389725,23.7965173226,nan,nan,inf,0.0,[],[],[],-37.819001,144.951254,172.7,-37.818715833333336,144.95083033333333,84.8,-35.84156328,143.1362385,63.2729524,-35.96631476,143.3707744,64.82851725,0.0,0.0,0.0,0.0,0.0,9.81,0.0,0.0,1.0,0.0,1616653790.0943372,0.0,0.0,0.0
2,-15089.5647387,-20760.7835286,-15533.8761938,-0.866487572263,-0.45154953955,23.869557376,nan,nan,inf,0.0,[],[],[],-37.819001,144.951254,172.7,-37.818715833333336,144.95083033333333,84.8,-35.84156328,143.1362385,63.2729524,-35.96631476,143.3707744,64.82851725,0.0,0.0,0.0,0.0,0.0,9.81,0.0,0.0,1.0,0.0,1616653790.1435208,0.0,0.0,0.0
2,-15089.598742,-20760.8136592,-15533.7791083,-0.873160448596,-0.469995598585,23.9388645502,nan,nan,inf,0.0,[],[],[],-37.819001,144.951254,172.7,-37.818715833333336,144.95083033333333,84.8,-35.84156328,143.1362385,63.2729524,-35.96631476,143.3707744,64.82851725,0.0,0.0,0.0,0.0,0.0,9.81,0.0,0.0,1.0,0.0,1616653790.1823504,0.0,0.0,0.0
2,-15089.6303558,-20760.8425586,-15533.6842845,-0.877086517172,-0.48672979732,24.0046100389,nan,nan,inf,0.0,[],[],[],-37.819001,144.951254,172.7,-37.818715833333336,144.95083033333333,84.8,-35.84156328,143.1362385,63.2729524,-35.96631476,143.3707744,64.82851725,0.0,0.0,0.0,0.0,0.0,9.81,0.0,0.0,1.0,0.0,1616653790.2275448,0.0,0.0,0.0
2,-15089.6597653,-20760.8702785,-15533.5916808,-0.878597361958,-0.501873091319,24.0669575435,nan,nan,inf,0.0,[],[],[],-37.819001,144.951254,172.7,-37.818715833333336,144.95083033333333,84.8,-35.84156328,143.1362385,63.2729524,-35.96631476,143.3707744,64.82851725,0.0,0.0,0.0,0.0,0.0,9.81,0.0,0.0,1.0,0.0,1616653790.2713752,0.0,0.0,0.0
