sysID,x1,x2,x3,x4,x5,x6,x7,x8,x9,x10,roll,pitch,yaw,gps0_lat,gps0_lon,gps0_alt,gps1_lat,gps1_lon,gps1_alt,gps2_lat,gps2_lon,gps2_alt,gps3_lat,gps3_lon,gps3_alt,gyro_x,gyro_y,gyro_z,accel_x,accel_y,accel_z,qt1,qt2,qt3,qt4,epoch,magVec1,magVec2,magVec3
2,-14608.8208982,-19870.008922,-15548.8527767,4.72393135262,9.47104497847,-79.1178583832,nan,nan,nan,0.0,[],[],[],-37.81899933333333,144.94817233333333,1023.4,-37.81937416666667,144.95074,415.3,-35.84156328,143.1362385,63.2729524,-35.96631476,143.3707744,64.82851725,0.0,0.0,0.0,0.0,0.0,9.81,0.0,0.0,1.0,0.0,1616657843.1026793,0.0,0.0,0.0
2,-15055.4365838,-20655.3582591,-15552.2552409,-7015.95902293,-18152.070726,-101.532539035,nan,nan,nan,0.0,[],[],[],-37.81899933333333,144.94817233333333,1023.4,-37.81937416666667,144.95074,415.3,-35.84156328,143.1362385,63.2729524,-35.96631476,143.3707744,64.82851725,0.0,0.0,0.0,0.0,0.0,9.81,0.0,0.0,1.0,0.0,1616657843.2144825,0.0,0.0,0.0
2,-15275.2599242,-20874.0599306,-15553.9307329,-8948.06671615,-13932.9682778,-94.5545937506,nan,nan,nan,0.0,[],[],[],-37.81899933333333,144.94817233333333,1023.4,-37.81937416666667,144.95074,415.3,-35.84156328,143.1362385,63.2729524,-35.96631476,143.3707744,64.82851725,0.0,0.0,0.0,0.0,0.0,9.81,0.0,0.0,1.0,0.0,1616657843.2971277,0.0,0.0,0.0
2,-15307.4252267,-20951.1696356,-15554.652104,-5760.72212976,-9418.82384569,-73.5908547732,nan,nan,-inf,0.0,[],[],[],-37.81899933333333,144.94817233333333,1023.4,-37.819377,144.95073966666666,417.4,-35.84156328,143.1362385,63.2729524,-35.96631476,143.3707744,64.82851725,0.0,0.0,0.0,0.0,0.0,9.81,0.0,0.0,1.0,0.0,1616657843.393898,0.0,0.0,0.0
2,-15311.8167032,-20966.1917469,-15554.8697404,-3808.21467108,-6334.1102963,-54.2564881599,nan,nan,inf,0.0,[],[],[],-37.81899933333333,144.94817233333333,1023.4,-37.819377,144.95073966666666,417.4,-35.84156328,143.1362385,63.2729524,-35.96631476,143.3707744,64.82851725,0.0,0.0,0.0,0.0,0.0,9.81,0.0,0.0,1.0,0.0,1616657843.4495275,0.0,0.0,0.0
2,-15307.8958549,-20963.4608695,-15554.8694221,-2645.8186368,-4447.83807859,-39.8796689025,nan,nan,inf,0.0,[],[],[],-37.81899933333333,144.94817233333333,1023.4,-37.819377,144.95073966666666,417.4,-35.84156328,143.1362385,63.2729524,-35.96631476,143.3707744,64.82851725,0.0,0.0,0.0,0.0,0.0,9.81,0.0,0.0,1.0,0.0,1616657843.4954517,0.0,0.0,0.0
2,-15302.1988874,-20956.0381412,-15554.7942466,-1926.89044545,-3263.63158877,-29.7825789106,nan,nan,inf,0.0,[],[],[],-37.81899933333333,144.94817233333333,1023.4,-37.819377,144.95073966666666,417.4,-35.84156328,143.1362385,63.2729524,-35.96631476,143.3707744,64.82851725,0.0,0.0,0.0,0.0,0.0,9.81,0.0,0.0,1.0,0.0,1616657843.536285,0.0,0.0,0.0
2,-15296.5500981,-20947.8839777,-15554.6993223,-1458.85031209,-2485.41430321,-22.6681004362,nan,nan,inf,0.0,[],[],[],-37.81899933333333,144.94817233333333,1023.4,-37.819377,144.95073966666666,417.4,-35.84156328,143.1362385,63.2729524,-35.96631476,143.3707744,64.82851725,0.0,0.0,0.0,0.0,0.0,9.81,0.0,0.0,1.0,0.0,1616657843.5751936,0.0,0.0,0.0
2,-15291.4371355,-20940.1990498,-15554.6042714,-1139.64359454,-1951.12677915,-17.5414629319,nan,nan,inf,0.0,[],[],[],-37.81899933333333,144.94817233333333,1023.4,-37.819377,144.95073966666666,417.4,-35.84156328,143.1362385,63.2729524,-35.96631476,143.3707744,64.82851725,0.0,0.0,0.0,0.0,0.0,9.81,0.0,0.0,1.0,0.0,1616657843.612608,0.0,0.0,0.0
2,-15286.9406656,-20933.2965567,-15554.515358,-913.209355427,-1570.14916287,-13.7448850049,nan,nan,-inf,0.0,[],[],[],-37.81899933333333,144.94817233333333,1023.4,-37.819377,144.95073966666666,417.4,-35.84156328,143.1362385,63.2729524,-35.96631476,143.3707744,64.82851725,0.0,0.0,0.0,0.0,0.0,9.81,0.0,0.0,1.0,0.0,1616657843.6519256,0.0,0.0,0.0
2,-15283.0178711,-20927.1960494,-15554.4339264,-747.217710242,-1289.64351778,-10.8557739945,nan,nan,-inf,0.0,[],[],[],-37.81899933333333,144.94817233333333,1023.4,-37.819377,144.95073966666666,417.4,-35.84156328,143.1362385,63.2729524,-35.96631476,143.3707744,64.82851725,0.0,0.0,0.0,0.0,0.0,9.81,0.0,0.0,1.0,0.0,1616657843.6946287,0.0,0.0,0.0
2,-15279.5947686,-20921.8247048,-15554.3595834,-622.133499677,-1077.44278052,-8.60071857598,nan,nan,-inf,0.0,[],[],[],-37.81899933333333,144.94817233333333,1023.4,-37.819377,144.95073966666666,417.4,-35.84156328,143.1362385,63.2729524,-35.96631476,143.3707744,64.82851725,0.0,0.0,0.0,0.0,0.0,9.81,0.0,0.0,1.0,0.0,1616657843.7338812,0.0,0.0,0.0
2,-15276.59663,-20917.0881192,-15554.2914052,-525.651419381,-913.172648656,-6.79942923298,nan,nan,-inf,0.0,[],[],[],-37.81899933333333,144.94817233333333,1023.4,-37.819377,144.95073966666666,417.4,-35.84156328,143.1362385,63.2729524,-35.96631476,143.3707744,64.82851725,0.0,0.0,0.0,0.0,0.0,9.81,0.0,0.0,1.0,0.0,1616657843.7760432,0.0,0.0,0.0
2,-15273.9571787,-20912.8949034,-15554.2283912,-449.733673766,-783.466833528,-5.33032521387,nan,nan,-inf,0.0,[],[],[],-37.81899933333333,144.94817233333333,1023.4,-37.819377,144.95073966666666,417.4,-35.84156328,143.1362385,63.2729524,-35.96631476,143.3707744,64.82851725,0.0,0.0,0.0,0.0,0.0,9.81,0.0,0.0,1.0,0.0,1616657843.816165,0.0,0.0,0.0
2,-15271.6203695,-20909.1642724,-15554.1696238,-388.961519214,-679.281904415,-4.10955519811,nan,nan,-inf,0.0,[],[],[],-37.81899933333333,144.94817233333333,1023.4,-37.819377,144.95073966666666,417.4,-35.84156328,143.1362385,63.2729524,-35.96631476,143.3707744,64.82851725,0.0,0.0,0.0,0.0,0.0,9.81,0.0,0.0,1.0,0.0,1616657843.859155,0.0,0.0,0.0
2,-15269.5414958,-20905.8388066,-15554.114315,-339.590271906,-594.388778577,-3.07805047449,nan,nan,-inf,0.0,[],[],[],-37.819000333333335,144.9481725,1023.5,-37.819377,144.95073966666666,417.4,-35.84156328,143.1362385,63.2729524,-35.96631476,143.3707744,64.82851725,0.0,0.0,0.0,0.0,0.0,9.81,0.0,0.0,1.0,0.0,1616657843.901973,0.0,0.0,0.0
2,-15267.6805059,-20902.8468173,-15554.0618086,-298.942148857,-524.234924438,-2.19340453812,nan,nan,-inf,0.0,[],[],[],-37.819000333333335,144.9481725,1023.5,-37.819377,144.95073966666666,417.4,-35.84156328,143.1362385,63.2729524,-35.96631476,143.3707744,64.82851725,0.0,0.0,0.0,0.0,0.0,9.81,0.0,0.0,1.0,0.0,1616657843.9434314,0.0,0.0,0.0
2,-15266.0055566,-20900.1404275,-15554.0115672,-265.083652339,-465.573132379,-1.42463577535,nan,nan,-inf,0.0,[],[],[],-37.819000333333335,144.9481725,1023.5,-37.819377,144.95073966666666,417.4,-35.84156328,143.1362385,63.2729524,-35.96631476,143.3707744,64.82851725,0.0,0.0,0.0,0.0,0.0,9.81,0.0,0.0,1.0,0.0,1616657843.9817705,0.0,0.0,0.0
2,-15264.4903376,-20897.6794941,-15553.9631566,-236.586123825,-415.99742737,-0.74876775506,nan,nan,-inf,0.0,[],[],[],-37.819000333333335,144.9481725,1023.5,-37.819377,144.95073966666666,417.4,-35.84156328,143.1362385,63.2729524,-35.96631476,143.3707744,64.82851725,0.0,0.0,0.0,0.0,0.0,9.81,0.0,0.0,1.0,0.0,1616657844.0226274,0.0,0.0,0.0
2,-15263.1129894,-20895.4302588,-15553.9162299,-212.375919238,-373.695169147,-0.148537035682,nan,nan,-inf,0.0,[],[],[],-37.819000333333335,144.9481725,1023.5,-37.819377,144.95073966666666,417.4,-35.84156328,143.1362385,63.2729524,-35.96631476,143.3707744,64.82851725,0.0,0.0,0.0,0.0,0.0,9.81,0.0,0.0,1.0,0.0,1616657844.068879,0.0,0.0,0.0
2,-15261.8552374,-20893.3642042,-15553.8705139,-191.6338411,-337.280157012,0.389171290421,nan,nan,-inf,0.0,[],[],[],-37.819000333333335,144.9481725,1023.5,-37.819377,144.95073966666666,417.4,-35.84156328,143.1362385,63.2729524,-35.96631476,143.3707744,64.82851725,0.0,0.0,0.0,0.0,0.0,9.81,0.0,0.0,1.0,0.0,1616657844.1172607,0.0,0.0,0.0
2,-15260.7017034,-20891.457114,-15553.8257985,-173.726197832,-305.677938574,0.87441126318,nan,nan,-inf,0.0,[],[],[],-37.819000333333335,144.9481725,1023.5,-37.819377,144.95073966666666,417.4,-35.84156328,143.1362385,63.2729524,-35.96631476,143.3707744,64.82851725,0.0,0.0,0.0,0.0,0.0,9.81,0.0,0.0,1.0,0.0,1616657844.1687698,0.0,0.0,0.0
2,-15259.63936,-20889.6883099,-15553.7819272,-158.156633803,-278.045516545,1.31494565611,nan,nan,-inf,0.0,[],[],[],-37.819000333333335,144.9481725,1023.5,-37.819377,144.95073966666666,417.4,-35.84156328,143.1362385,63.2729524,-35.96631476,143.3707744,64.82851725,0.0,0.0,0.0,0.0,0.0,9.81,0.0,0.0,1.0,0.0,1616657844.2161992,0.0,0.0,0.0
2,-15258.657096,-20888.0400371,-15553.7387902,-144.531881352,-253.714182908,1.7167998507,nan,nan,-inf,0.0,[],[],[],-37.819000333333335,144.9481725,1023.5,-37.819377,144.95073966666666,417.4,-35.84156328,143.1362385,63.2729524,-35.96631476,143.3707744,64.82851725,0.0,0.0,0.0,0.0,0.0,9.81,0.0,0.0,1.0,0.0,1616657844.2582228,0.0,0.0,0.0
2,-15257.7453679,-20886.4969712,-15553.696318,-132.537018133,-232.148191418,2.08466718494,nan,nan,-inf,0.0,[],[],[],-37.819000333333335,144.9481725,1023.5,-37.819377,144.95073966666666,417.4,-35.84156328,143.1362385,63.2729524,-35.96631476,143.3707744,64.82851725,0.0,0.0,0.0,0.0,0.0,9.81,0.0,0.0,1.0,0.0,1616657844.3124175,0.0,0.0,0.0
2,-15256.8959195,-20885.0458216,-15553.6544769,-121.917323933,-212.914460605,2.42221066866,nan,nan,-inf,0.0,[],[],[],-37.819000333333335,144.9481725,1023.5,-37.819377,144.95073966666666,417.4,-35.84156328,143.1362385,63.2729524,-35.96631476,143.3707744,64.82851725,0.0,0.0,0.0,0.0,0.0,9.81,0.0,0.0,1.0,0.0,1616657844.3523297,0.0,0.0,0.0
2,-15256.1015526,-20883.6750143,-15553.6132646,-112.464790012,-195.660078102,2.73229153372,nan,nan,-inf,0.0,[],[],[],-37.819000333333335,144.9481725,1023.5,-37.819377,144.95073966666666,417.4,-35.84156328,143.1362385,63.2729524,-35.96631476,143.3707744,64.82851725,0.0,0.0,0.0,0.0,0.0,9.81,0.0,0.0,1.0,0.0,1616657844.4090488,0.0,0.0,0.0
2,-15255.3089733,-20882.3917822,-15553.5315248,-103.868444765,-180.15054994,3.12974277029,nan,nan,inf,0.0,[],[],[],-37.819000333333335,144.9481725,1023.5,-37.81937883333333,144.95074316666665,419.2,-35.84156328,143.1362385,63.2729524,-35.96631476,143.3707744,64.82851725,0.0,0.0,0.0,0.0,0.0,9.81,0.0,0.0,1.0,0.0,1616657844.4536586,0.0,0.0,0.0
2,-15254.5687756,-20881.1673496,-15553.4552648,-96.1616642397,-166.079293293,3.48128183502,nan,nan,inf,0.0,[],[],[],-37.819000333333335,144.9481725,1023.5,-37.81937883333333,144.95074316666665,419.2,-35.84156328,143.1362385,63.2729524,-35.96631476,143.3707744,64.82851725,0.0,0.0,0.0,0.0,0.0,9.81,0.0,0.0,1.0,0.0,1616657844.4988244,0.0,0.0,0.0
2,-15253.8739368,-20879.9944084,-15553.3838986,-89.2156071871,-153.250232136,3.79260877655,nan,nan,inf,0.0,[],[],[],-37.819000333333335,144.9481725,1023.5,-37.81937883333333,144.95074316666665,419.2,-35.84156328,143.1362385,63.2729524,-35.96631476,143.3707744,64.82851725,0.0,0.0,0.0,0.0,0.0,9.81,0.0,0.0,1.0,0.0,1616657844.5398986,0.0,0.0,0.0
2,-15253.2183809,-20878.8665134,-15553.3169645,-82.9221108985,-141.499626823,4.06824014763,nan,nan,inf,0.0,[],[],[],-37.819000333333335,144.9481725,1023.5,-37.81937883333333,144.95074316666665,419.2,-35.84156328,143.1362385,63.2729524,-35.96631476,143.3707744,64.82851725,0.0,0.0,0.0,0.0,0.0,9.81,0.0,0.0,1.0,0.0,1616657844.5782397,0.0,0.0,0.0
2,-15252.5967566,-20877.778001,-15553.2541018,-77.1893063094,-130.690278635,4.311788763,nan,nan,inf,0.0,[],[],[],-37.819000333333335,144.9481725,1023.5,-37.81937883333333,144.95074316666665,419.2,-35.84156328,143.1362385,63.2729524,-35.96631476,143.3707744,64.82851725,0.0,0.0,0.0,0.0,0.0,9.81,0.0,0.0,1.0,0.0,1616657844.618192,0.0,0.0,0.0
2,-15252.004263,-20876.7239221,-15553.1950314,-71.9382283268,-120.706942102,4.52618181386,nan,nan,inf,0.0,[],[],[],-37.819001166666666,144.94817266666666,1023.4,-37.81937883333333,144.95074316666665,419.2,-35.84156328,143.1362385,63.2729524,-35.96631476,143.3707744,64.82851725,0.0,0.0,0.0,0.0,0.0,9.81,0.0,0.0,1.0,0.0,1616657844.6568477,0.0,0.0,0.0
2,-15251.4368244,-20875.7048616,-15553.1395238,-67.0994856725,-111.466167758,4.71404694975,nan,nan,inf,0.0,[],[],[],-37.819001166666666,144.94817266666666,1023.4,-37.81937883333333,144.95074316666665,419.2,-35.84156328,143.1362385,63.2729524,-35.96631476,143.3707744,64.82851725,0.0,0.0,0.0,0.0,0.0,9.81,0.0,0.0,1.0,0.0,1616657844.6972826,0.0,0.0,0.0
2,-15250.8901487,-20874.7118026,-15553.0874311,-62.6137515708,-102.870689753,4.87720092194,nan,nan,inf,0.0,[],[],[],-37.819001166666666,144.94817266666666,1023.4,-37.81937883333333,144.95074316666665,419.2,-35.84156328,143.1362385,63.2729524,-35.96631476,143.3707744,64.82851725,0.0,0.0,0.0,0.0,0.0,9.81,0.0,0.0,1.0,0.0,1616657844.734563,0.0,0.0,0.0
2,-15250.3603694,-20873.741685,-15553.0386312,-58.4274335645,-94.8520502209,5.01741269992,nan,nan,inf,0.0,[],[],[],-37.819001166666666,144.94817266666666,1023.4,-37.81937883333333,144.95074316666665,419.2,-35.84156328,143.1362385,63.2729524,-35.96631476,143.3707744,64.82851725,0.0,0.0,0.0,0.0,0.0,9.81,0.0,0.0,1.0,0.0,1616657844.775315,0.0,0.0,0.0
2,-15249.8438179,-20872.7919706,-15552.9930311,-54.4927894654,-87.3526060449,5.13627235984,nan,nan,inf,0.0,[],[],[],-37.819001166666666,144.94817266666666,1023.4,-37.81937883333333,144.95074316666665,419.2,-35.84156328,143.1362385,63.2729524,-35.96631476,143.3707744,64.82851725,0.0,0.0,0.0,0.0,0.0,9.81,0.0,0.0,1.0,0.0,1616657844.8190281,0.0,0.0,0.0
2,-15249.3370097,-20871.8606057,-15552.9505565,-50.7673423168,-80.3238333007,5.23526142503,nan,nan,inf,0.0,[],[],[],-37.819001166666666,144.94817266666666,1023.4,-37.81937883333333,144.95074316666665,419.2,-35.84156328,143.1362385,63.2729524,-35.96631476,143.3707744,64.82851725,0.0,0.0,0.0,0.0,0.0,9.81,0.0,0.0,1.0,0.0,1616657844.8679214,0.0,0.0,0.0
2,-15248.8366649,-20870.945983,-15552.9111437,-47.2136754494,-73.7248718543,5.31580865997,nan,nan,inf,0.0,[],[],[],-37.819001166666666,144.94817266666666,1023.4,-37.81937883333333,144.95074316666665,419.2,-35.84156328,143.1362385,63.2729524,-35.96631476,143.3707744,64.82851725,0.0,0.0,0.0,0.0,0.0,9.81,0.0,0.0,1.0,0.0,1616657844.909883,0.0,0.0,0.0
2,-15248.3397633,-20870.0469008,-15552.8747314,-43.7995477494,-67.5212606733,5.37933385538,nan,nan,inf,0.0,[],[],[],-37.819001166666666,144.94817266666666,1023.4,-37.81937883333333,144.95074316666665,419.2,-35.84156328,143.1362385,63.2729524,-35.96631476,143.3707744,64.82851725,0.0,0.0,0.0,0.0,0.0,9.81,0.0,0.0,1.0,0.0,1616657844.9534361,0.0,0.0,0.0
2,-15247.8436298,-20869.1625215,-15552.8412539,-40.4982409127,-61.6838323594,5.42728180047,nan,nan,inf,0.0,[],[],[],-37.819001166666666,144.94817266666666,1023.4,-37.81937883333333,144.95074316666665,419.2,-35.84156328,143.1362385,63.2729524,-35.96631476,143.3707744,64.82851725,0.0,0.0,0.0,0.0,0.0,9.81,0.0,0.0,1.0,0.0,1616657844.9949071,0.0,0.0,0.0
2,-15247.3460418,-20868.2923272,-15552.8106349,-37.289016002,-56.1877502953,5.46114836234,nan,nan,inf,0.0,[],[],[],-37.819001166666666,144.94817266666666,1023.4,-37.81937883333333,144.95074316666665,419.2,-35.84156328,143.1362385,63.2729524,-35.96631476,143.3707744,64.82851725,0.0,0.0,0.0,0.0,0.0,9.81,0.0,0.0,1.0,0.0,1616657845.0342875,0.0,0.0,0.0
2,-15246.8453443,-20867.4360775,-15552.7827813,-34.1575271129,-51.0116827541,5.48250024226,nan,nan,inf,0.0,[],[],[],-37.819001166666666,144.94817266666666,1023.4,-37.81937883333333,144.95074316666665,419.2,-35.84156328,143.1362385,63.2729524,-35.96631476,143.3707744,64.82851725,0.0,0.0,0.0,0.0,0.0,9.81,0.0,0.0,1.0,0.0,1616657845.0786643,0.0,0.0,0.0
2,-15246.3405535,-20866.5937695,-15552.7575782,-31.0960288586,-46.1371141543,5.49298946088,nan,nan,inf,0.0,[],[],[],-37.819001166666666,144.94817266666666,1023.4,-37.81937883333333,144.95074316666665,419.2,-35.84156328,143.1362385,63.2729524,-35.96631476,143.3707744,64.82851725,0.0,0.0,0.0,0.0,0.0,9.81,0.0,0.0,1.0,0.0,1616657845.1292722,0.0,0.0,0.0
2,-15245.831429,-20865.7656029,-15552.7348843,-28.1032334363,-41.5477935755,5.49436294408,nan,nan,inf,0.0,[],[],[],-37.819001166666666,144.94817266666666,1023.4,-37.81937883333333,144.95074316666665,419.2,-35.84156328,143.1362385,63.2729524,-35.96631476,143.3707744,64.82851725,0.0,0.0,0.0,0.0,0.0,9.81,0.0,0.0,1.0,0.0,1616657845.1735787,0.0,0.0,0.0
2,-15245.3184968,-20864.9519516,-15552.7145271,-25.1837267867,-37.2293149881,5.48846684805,nan,nan,inf,0.0,[],[],[],-37.819001166666666,144.94817266666666,1023.4,-37.81937883333333,144.95074316666665,419.2,-35.84156328,143.1362385,63.2729524,-35.96631476,143.3707744,64.82851725,0.0,0.0,0.0,0.0,0.0,9.81,0.0,0.0,1.0,0.0,1616657845.2153587,0.0,0.0,0.0
2,-15244.8030113,-20864.1533406,-15552.6963003,-22.3469349814,-33.168814263,5.47724467835,nan,nan,inf,0.0,[],[],[],-37.819001166666666,144.94817266666666,1023.4,-37.81937883333333,144.95074316666665,419.2,-35.84156328,143.1362385,63.2729524,-35.96631476,143.3707744,64.82851725,0.0,0.0,0.0,0.0,0.0,9.81,0.0,0.0,1.0,0.0,1616657845.260355,0.0,0.0,0.0
2,-15244.2868583,-20863.3704294,-15552.6799612,-19.605723163,-29.3547581105,5.46272803236,nan,nan,inf,0.0,[],[],[],-37.819001166666666,144.94817266666666,1023.4,-37.81937883333333,144.95074316666665,419.2,-35.84156328,143.1362385,63.2729524,-35.96631476,143.3707744,64.82851725,0.0,0.0,0.0,0.0,0.0,9.81,0.0,0.0,1.0,0.0,1616657845.313293,0.0,0.0,0.0
2,-15243.7724062,-20862.6039964,-15552.6652295,-16.9747856729,-25.7767932482,5.44701905839,nan,nan,inf,0.0,[],[],[],-37.819001166666666,144.94817266666666,1023.4,-37.81937883333333,144.95074316666665,419.2,-35.84156328,143.1362385,63.2729524,-35.96631476,143.3707744,64.82851725,0.0,0.0,0.0,0.0,0.0,9.81,0.0,0.0,1.0,0.0,1616657845.3535955,0.0,0.0,0.0
2,-15243.2623279,-20861.8549242,-15552.6517883,-14.4690259828,-22.4256229923,5.43226445244,nan,nan,inf,0.0,[],[],[],-37.819001166666666,144.94817266666666,1023.4,-37.81937883333333,144.95074316666665,419.2,-35.84156328,143.1362385,63.2729524,-35.96631476,143.3707744,64.82851725,0.0,0.0,0.0,0.0,0.0,9.81,0.0,0.0,1.0,0.0,1616657845.3914223,0.0,0.0,0.0
2,-15242.7189198,-20861.1457332,-15552.6389732,-11.8914183535,-19.3700128134,5.42464313151,nan,nan,inf,0.0,[],[],[],-37.819001166666666,144.94817266666666,1023.4,-37.8193825,144.95074316666665,420.7,-35.84156328,143.1362385,63.2729524,-35.96631476,143.3707744,64.82851725,0.0,0.0,0.0,0.0,0.0,9.81,0.0,0.0,1.0,0.0,1616657845.436446,0.0,0.0,0.0
2,-15242.1929612,-20860.4537237,-15552.6267087,-9.52250795568,-16.5101282816,5.4217482445,nan,nan,inf,0.0,[],[],[],-37.819001166666666,144.94817266666666,1023.4,-37.8193825,144.95074316666665,420.7,-35.84156328,143.1362385,63.2729524,-35.96631476,143.3707744,64.82851725,0.0,0.0,0.0,0.0,0.0,9.81,0.0,0.0,1.0,0.0,1616657845.4771314,0.0,0.0,0.0
2,-15241.6863337,-20859.7801296,-15552.614593,-7.36196243855,-13.8410794261,5.42569583386,nan,nan,inf,0.0,[],[],[],-37.819001166666666,144.94817266666666,1023.4,-37.8193825,144.95074316666665,420.7,-35.84156328,143.1362385,63.2729524,-35.96631476,143.3707744,64.82851725,0.0,0.0,0.0,0.0,0.0,9.81,0.0,0.0,1.0,0.0,1616657845.5186203,0.0,0.0,0.0
2,-15241.2005034,-20859.1261999,-15552.6022049,-5.40598476792,-11.3583427122,5.43847999558,nan,nan,inf,0.0,[],[],[],-37.819001166666666,144.94817266666666,1023.4,-37.8193825,144.95074316666665,420.7,-35.84156328,143.1362385,63.2729524,-35.96631476,143.3707744,64.82851725,0.0,0.0,0.0,0.0,0.0,9.81,0.0,0.0,1.0,0.0,1616657845.5598977,0.0,0.0,0.0
2,-15240.7365242,-20858.4931548,-15552.5891118,-3.64784067288,-9.05750692003,5.46193126175,nan,nan,inf,0.0,[],[],[],-37.819001166666666,144.94817266666666,1023.4,-37.8193825,144.95074316666665,420.7,-35.84156328,143.1362385,63.2729524,-35.96631476,143.3707744,64.82851725,0.0,0.0,0.0,0.0,0.0,9.81,0.0,0.0,1.0,0.0,1616657845.6013453,0.0,0.0,0.0
2,-15240.2950685,-20857.882143,-15552.5748783,-2.07850474353,-6.93405206014,5.49768139556,nan,nan,inf,0.0,[],[],[],-37.819002,144.948173,1023.3,-37.8193825,144.95074316666665,420.7,-35.84156328,143.1362385,63.2729524,-35.96631476,143.3707744,64.82851725,0.0,0.0,0.0,0.0,0.0,9.81,0.0,0.0,1.0,0.0,1616657845.6483703,0.0,0.0,0.0
2,-15239.8737603,-20857.2983192,-15552.5589009,-0.67117449857,-4.99590690524,5.54836471975,nan,nan,inf,0.0,[],[],[],-37.819002,144.948173,1023.3,-37.8193825,144.95074316666665,420.7,-35.84156328,143.1362385,63.2729524,-35.96631476,143.3707744,64.82851725,0.0,0.0,0.0,0.0,0.0,9.81,0.0,0.0,1.0,0.0,1616657845.6975625,0.0,0.0,0.0
2,-15239.4761927,-20856.7381474,-15552.5409345,0.563772334691,-3.22304958659,5.61379644443,nan,nan,inf,0.0,[],[],[],-37.819002,144.948173,1023.3,-37.8193825,144.95074316666665,420.7,-35.84156328,143.1362385,63.2729524,-35.96631476,143.3707744,64.82851725,0.0,0.0,0.0,0.0,0.0,9.81,0.0,0.0,1.0,0.0,1616657845.7371874,0.0,0.0,0.0
2,-15239.1020653,-20856.2023973,-15552.5205829,1.63979304782,-1.6100991026,5.69488710193,nan,nan,inf,0.0,[],[],[],-37.819002,144.948173,1023.3,-37.8193825,144.95074316666665,420.7,-35.84156328,143.1362385,63.2729524,-35.96631476,143.3707744,64.82851725,0.0,0.0,0.0,0.0,0.0,9.81,0.0,0.0,1.0,0.0,1616657845.776468,0.0,0.0,0.0
2,-15238.7509092,-20855.691662,-15552.4974758,2.57023908825,-0.151142875001,5.79228937938,nan,nan,inf,0.0,[],[],[],-37.819002,144.948173,1023.3,-37.8193825,144.95074316666665,420.7,-35.84156328,143.1362385,63.2729524,-35.96631476,143.3707744,64.82851725,0.0,0.0,0.0,0.0,0.0,9.81,0.0,0.0,1.0,0.0,1616657845.820346,0.0,0.0,0.0
2,-15238.4221303,-20855.2063499,-15552.4712732,3.36805935112,1.16024402111,5.90640310922,nan,nan,inf,0.0,[],[],[],-37.819002,144.948173,1023.3,-37.8193825,144.95074316666665,420.7,-35.84156328,143.1362385,63.2729524,-35.96631476,143.3707744,64.82851725,0.0,0.0,0.0,0.0,0.0,9.81,0.0,0.0,1.0,0.0,1616657845.86046,0.0,0.0,0.0
2,-15238.115043,-20854.7466834,-15552.4416696,4.04560720779,2.33094758679,6.03738633746,nan,nan,inf,0.0,[],[],[],-37.819002,144.948173,1023.3,-37.8193825,144.95074316666665,420.7,-35.84156328,143.1362385,63.2729524,-35.96631476,143.3707744,64.82851725,0.0,0.0,0.0,0.0,0.0,9.81,0.0,0.0,1.0,0.0,1616657845.9061046,0.0,0.0,0.0
2,-15237.8288961,-20854.3127028,-15552.4083968,4.61452810772,3.36824118177,6.18517136477,nan,nan,inf,0.0,[],[],[],-37.819002,144.948173,1023.3,-37.8193825,144.95074316666665,420.7,-35.84156328,143.1362385,63.2729524,-35.96631476,143.3707744,64.82851725,0.0,0.0,0.0,0.0,0.0,9.81,0.0,0.0,1.0,0.0,1616657845.9473476,0.0,0.0,0.0
2,-15237.5628922,-20853.9042754,-15552.3712255,5.08570572663,4.2796979944,6.34948463502,nan,nan,inf,0.0,[],[],[],-37.819002,144.948173,1023.3,-37.8193825,144.95074316666665,420.7,-35.84156328,143.1362385,63.2729524,-35.96631476,143.3707744,64.82851725,0.0,0.0,0.0,0.0,0.0,9.81,0.0,0.0,1.0,0.0,1616657845.990274,0.0,0.0,0.0
2,-15237.3162016,-20853.5211078,-15552.3299666,5.4692480658,5.07309697721,6.5298693732,nan,nan,inf,0.0,[],[],[],-37.819002,144.948173,1023.3,-37.8193825,144.95074316666665,420.7,-35.84156328,143.1362385,63.2729524,-35.96631476,143.3707744,64.82851725,0.0,0.0,0.0,0.0,0.0,9.81,0.0,0.0,1.0,0.0,1616657846.0321686,0.0,0.0,0.0
2,-15237.0879735,-20853.162761,-15552.2844704,5.77449909179,5.75632805373,6.72570993999,nan,nan,inf,0.0,[],[],[],-37.819002,144.948173,1023.3,-37.8193825,144.95074316666665,420.7,-35.84156328,143.1362385,63.2729524,-35.96631476,143.3707744,64.82851725,0.0,0.0,0.0,0.0,0.0,9.81,0.0,0.0,1.0,0.0,1616657846.07828,0.0,0.0,0.0
2,-15236.877344,-20852.8286662,-15552.2346265,6.01006550536,6.33730099014,6.93625696377,nan,nan,inf,0.0,[],[],[],-37.819002,144.948173,1023.3,-37.8193825,144.95074316666665,420.7,-35.84156328,143.1362385,63.2729524,-35.96631476,143.3707744,64.82851725,0.0,0.0,0.0,0.0,0.0,9.81,0.0,0.0,1.0,0.0,1616657846.1261554,0.0,0.0,0.0
2,-15236.6834437,-20852.5181432,-15552.1803614,6.18385158408,6.82386106442,7.16065242612,nan,nan,inf,0.0,[],[],[],-37.819002,144.948173,1023.3,-37.8193825,144.95074316666665,420.7,-35.84156328,143.1362385,63.2729524,-35.96631476,143.3707744,64.82851725,0.0,0.0,0.0,0.0,0.0,9.81,0.0,0.0,1.0,0.0,1616657846.165827,0.0,0.0,0.0
2,-15236.5054029,-20852.2304168,-15552.1216372,6.30309761503,7.22371359663,7.3979540057,nan,nan,-inf,0.0,[],[],[],-37.819002,144.948173,1023.3,-37.8193825,144.95074316666665,420.7,-35.84156328,143.1362385,63.2729524,-35.96631476,143.3707744,64.82851725,0.0,0.0,0.0,0.0,0.0,9.81,0.0,0.0,1.0,0.0,1616657846.213546,0.0,0.0,0.0
2,-15236.3423574,-20851.9646351,-15552.0584484,6.37441926592,7.54435852973,7.64715811996,nan,nan,-inf,0.0,[],[],[],-37.819002,144.948173,1023.3,-37.8193825,144.95074316666665,420.7,-35.84156328,143.1362385,63.2729524,-35.96631476,143.3707744,64.82851725,0.0,0.0,0.0,0.0,0.0,9.81,0.0,0.0,1.0,0.0,1616657846.2613401,0.0,0.0,0.0
2,-15236.1934528,-20851.7198854,-15551.9908195,6.40384646138,7.79303555919,7.9072212382,nan,nan,-inf,0.0,[],[],[],-37.819002,144.948173,1023.3,-37.8193825,144.95074316666665,420.7,-35.84156328,143.1362385,63.2729524,-35.96631476,143.3707744,64.82851725,0.0,0.0,0.0,0.0,0.0,9.81,0.0,0.0,1.0,0.0,1616657846.3156047,0.0,0.0,0.0
2,-15236.057849,-20851.4952101,-15551.9188019,6.39686108581,7.97667978144,8.17707916716,nan,nan,-inf,0.0,[],[],[],-37.819002,144.948173,1023.3,-37.8193825,144.95074316666665,420.7,-35.84156328,143.1362385,63.2729524,-35.96631476,143.3707744,64.82851725,0.0,0.0,0.0,0.0,0.0,9.81,0.0,0.0,1.0,0.0,1616657846.3587508,0.0,0.0,0.0
2,-15235.9347242,-20851.2896207,-15551.8424704,6.3584332631,8.10188744161,8.45566412599,nan,nan,-inf,0.0,[],[],[],-37.819002,144.948173,1023.3,-37.8193825,144.95074316666665,420.7,-35.84156328,143.1362385,63.2729524,-35.96631476,143.3707744,64.82851725,0.0,0.0,0.0,0.0,0.0,9.81,0.0,0.0,1.0,0.0,1616657846.40887,0.0,0.0,0.0
2,-15235.8232777,-20851.1021109,-15551.7619206,6.29305617767,8.17489108905,8.74191952952,nan,nan,-inf,0.0,[],[],[],-37.819002,144.948173,1023.3,-37.8193855,144.95074416666668,422.3,-35.84156328,143.1362385,63.2729524,-35.96631476,143.3707744,64.82851725,0.0,0.0,0.0,0.0,0.0,9.81,0.0,0.0,1.0,0.0,1616657846.4482293,0.0,0.0,0.0
2,-15235.6835693,-20850.9489507,-15551.671818,6.34963820502,8.15024646012,9.04425684547,nan,nan,inf,0.0,[],[],[],-37.819002,144.948173,1023.3,-37.8193855,144.95074416666668,422.3,-35.84156328,143.1362385,63.2729524,-35.96631476,143.3707744,64.82851725,0.0,0.0,0.0,0.0,0.0,9.81,0.0,0.0,1.0,0.0,1616657846.4957635,0.0,0.0,0.0
2,-15235.5618318,-20850.8100742,-15551.5779626,6.34644674947,8.09425622365,9.35141477578,nan,nan,inf,0.0,[],[],[],-37.819002,144.948173,1023.3,-37.8193855,144.95074416666668,422.3,-35.84156328,143.1362385,63.2729524,-35.96631476,143.3707744,64.82851725,0.0,0.0,0.0,0.0,0.0,9.81,0.0,0.0,1.0,0.0,1616657846.5360487,0.0,0.0,0.0
2,-15235.4559471,-20850.6846949,-15551.4804915,6.29567779913,8.01037139023,9.66247018425,nan,nan,-inf,0.0,[],[],[],-37.819002,144.948173,1023.3,-37.8193855,144.95074416666668,422.3,-35.84156328,143.1362385,63.2729524,-35.96631476,143.3707744,64.82851725,0.0,0.0,0.0,0.0,0.0,9.81,0.0,0.0,1.0,0.0,1616657846.5754886,0.0,0.0,0.0
2,-15235.3640671,-20850.5720154,-15551.3795501,6.20734932193,7.90194808198,9.9765505985,nan,nan,-inf,0.0,[],[],[],-37.819002,144.948173,1023.3,-37.8193855,144.95074416666668,422.3,-35.84156328,143.1362385,63.2729524,-35.96631476,143.3707744,64.82851725,0.0,0.0,0.0,0.0,0.0,9.81,0.0,0.0,1.0,0.0,1616657846.6134148,0.0,0.0,0.0
2,-15235.2845757,-20850.4712382,-15551.2752897,6.08968882246,7.77219972581,10.292838305,nan,nan,-inf,0.0,[],[],[],-37.819002,144.948173,1023.3,-37.8193855,144.95074416666668,422.3,-35.84156328,143.1362385,63.2729524,-35.96631476,143.3707744,64.82851725,0.0,0.0,0.0,0.0,0.0,9.81,0.0,0.0,1.0,0.0,1616657846.6515007,0.0,0.0,0.0
2,-15235.2160557,-20850.3815749,-15551.1678659,5.94945151549,7.62416377017,10.6105728183,nan,nan,-inf,0.0,[],[],[],-37.819002,144.948173,1023.3,-37.8193855,144.95074416666668,422.3,-35.84156328,143.1362385,63.2729524,-35.96631476,143.3707744,64.82851725,0.0,0.0,0.0,0.0,0.0,9.81,0.0,0.0,1.0,0.0,1616657846.6909065,0.0,0.0,0.0
2,-15235.1572614,-20850.3022541,-15551.0574361,5.7921811677,7.46068007079,10.9290519906,nan,nan,-inf,0.0,[],[],[],-37.819002,144.948173,1023.3,-37.8193855,144.95074416666668,422.3,-35.84156328,143.1362385,63.2729524,-35.96631476,143.3707744,64.82851725,0.0,0.0,0.0,0.0,0.0,9.81,0.0,0.0,1.0,0.0,1616657846.7315748,0.0,0.0,0.0
2,-15235.1070948,-20850.2325264,-15550.9441582,5.62242380436,7.28437852618,11.2476320009,nan,nan,-inf,0.0,[],[],[],-37.819002,144.948173,1023.3,-37.8193855,144.95074416666668,422.3,-35.84156328,143.1362385,63.2729524,-35.96631476,143.3707744,64.82851725,0.0,0.0,0.0,0.0,0.0,9.81,0.0,0.0,1.0,0.0,1616657846.7694967,0.0,0.0,0.0
2,-15235.0645856,-20850.1716693,-15550.8281894,5.44390280354,7.09767393584,11.5657264376,nan,nan,-inf,0.0,[],[],[],-37.819002,144.948173,1023.3,-37.8193855,144.95074416666668,422.3,-35.84156328,143.1362385,63.2729524,-35.96631476,143.3707744,64.82851725,0.0,0.0,0.0,0.0,0.0,9.81,0.0,0.0,1.0,0.0,1616657846.8103232,0.0,0.0,0.0
2,-15235.0288748,-20850.1189901,-15550.7096849,5.25966243514,6.90276640173,11.8828046601,nan,nan,-inf,0.0,[],[],[],-37.819002,144.948173,1023.3,-37.8193855,144.95074416666668,422.3,-35.84156328,143.1362385,63.2729524,-35.96631476,143.3707744,64.82851725,0.0,0.0,0.0,0.0,0.0,9.81,0.0,0.0,1.0,0.0,1616657846.8537762,0.0,0.0,0.0
2,-15234.9991987,-20850.0738281,-15550.588797,5.0721873653,6.70164681496,12.1983893595,nan,nan,-inf,0.0,[],[],[],-37.819002,144.948173,1023.3,-37.8193855,144.95074416666668,422.3,-35.84156328,143.1362385,63.2729524,-35.96631476,143.3707744,64.82851725,0.0,0.0,0.0,0.0,0.0,9.81,0.0,0.0,1.0,0.0,1616657846.9002035,0.0,0.0,0.0
2,-15234.9748796,-20850.035557,-15550.465674,4.88349398071,6.49610161557,12.5120547277,nan,nan,-inf,0.0,[],[],[],-37.819002,144.948173,1023.3,-37.8193855,144.95074416666668,422.3,-35.84156328,143.1362385,63.2729524,-35.96631476,143.3707744,64.82851725,0.0,0.0,0.0,0.0,0.0,9.81,0.0,0.0,1.0,0.0,1616657846.9420562,0.0,0.0,0.0
2,-15234.9553129,-20850.0035846,-15550.3404603,4.69521587434,6.28772547233,12.8234227568,nan,nan,-inf,0.0,[],[],[],-37.819002,144.948173,1023.3,-37.8193855,144.95074416666668,422.3,-35.84156328,143.1362385,63.2729524,-35.96631476,143.3707744,64.82851725,0.0,0.0,0.0,0.0,0.0,9.81,0.0,0.0,1.0,0.0,1616657846.9922402,0.0,0.0,0.0
2,-15234.9399587,-20849.977353,-15550.2132953,4.50866743497,6.07793143932,13.1321604374,nan,nan,-inf,0.0,[],[],[],-37.819002,144.948173,1023.3,-37.8193855,144.95074416666668,422.3,-35.84156328,143.1362385,63.2729524,-35.96631476,143.3707744,64.82851725,0.0,0.0,0.0,0.0,0.0,9.81,0.0,0.0,1.0,0.0,1616657847.0318463,0.0,0.0,0.0
2,-15234.9283346,-20849.9563391,-15550.0843135,4.3248981068,5.86796296764,13.4379765744,nan,nan,-inf,0.0,[],[],[],-37.819002,144.948173,1023.3,-37.8193855,144.95074416666668,422.3,-35.84156328,143.1362385,63.2729524,-35.96631476,143.3707744,64.82851725,0.0,0.0,0.0,0.0,0.0,9.81,0.0,0.0,1.0,0.0,1616657847.0777133,0.0,0.0,0.0
2,-15234.9200086,-20849.9400534,-15549.9536441,4.14473730414,5.65890632239,13.7406185729,nan,nan,-inf,0.0,[],[],[],-37.819003,144.94817366666666,1023.3,-37.8193855,144.95074416666668,422.3,-35.84156328,143.1362385,63.2729524,-35.96631476,143.3707744,64.82851725,0.0,0.0,0.0,0.0,0.0,9.81,0.0,0.0,1.0,0.0,1616657847.1235077,0.0,0.0,0.0
2,-15234.9106197,-20849.9318341,-15549.821047,3.98086531674,5.44292685366,14.0412542656,nan,nan,-inf,0.0,[],[],[],-37.819003,144.94817366666666,1023.3,-37.8193855,144.95074416666668,422.3,-35.84156328,143.1362385,63.2729524,-35.96631476,143.3707744,64.82851725,0.0,0.0,0.0,0.0,0.0,9.81,0.0,0.0,1.0,0.0,1616657847.1683645,0.0,0.0,0.0
2,-15234.9045485,-20849.9271751,-15549.6870244,3.81874112145,5.23081134364,14.3381645925,nan,nan,-inf,0.0,[],[],[],-37.819003,144.94817366666666,1023.3,-37.8193855,144.95074416666668,422.3,-35.84156328,143.1362385,63.2729524,-35.96631476,143.3707744,64.82851725,0.0,0.0,0.0,0.0,0.0,9.81,0.0,0.0,1.0,0.0,1616657847.2128983,0.0,0.0,0.0
2,-15234.9013628,-20849.9257053,-15549.5516902,3.65931478672,5.02310253706,14.6312027181,nan,nan,-inf,0.0,[],[],[],-37.819003,144.94817366666666,1023.3,-37.8193855,144.95074416666668,422.3,-35.84156328,143.1362385,63.2729524,-35.96631476,143.3707744,64.82851725,0.0,0.0,0.0,0.0,0.0,9.81,0.0,0.0,1.0,0.0,1616657847.2629137,0.0,0.0,0.0
2,-15234.9006806,-20849.9270805,-15549.4151525,3.50332676612,4.82025333024,14.9202482612,nan,nan,-inf,0.0,[],[],[],-37.819003,144.94817366666666,1023.3,-37.8193855,144.95074416666668,422.3,-35.84156328,143.1362385,63.2729524,-35.96631476,143.3707744,64.82851725,0.0,0.0,0.0,0.0,0.0,9.81,0.0,0.0,1.0,0.0,1616657847.3142507,0.0,0.0,0.0
2,-15234.9021646,-20849.9309824,-15549.2775143,3.35134465188,4.62263466797,15.2052044512,nan,nan,-inf,0.0,[],[],[],-37.819003,144.94817366666666,1023.3,-37.8193855,144.95074416666668,422.3,-35.84156328,143.1362385,63.2729524,-35.96631476,143.3707744,64.82851725,0.0,0.0,0.0,0.0,0.0,9.81,0.0,0.0,1.0,0.0,1616657847.3548603,0.0,0.0,0.0
2,-15234.9055161,-20849.9371172,-15549.1388735,3.20379361707,4.43054326891,15.4859954697,nan,nan,-inf,0.0,[],[],[],-37.819003,144.94817366666666,1023.3,-37.8193855,144.95074416666668,422.3,-35.84156328,143.1362385,63.2729524,-35.96631476,143.3707744,64.82851725,0.0,0.0,0.0,0.0,0.0,9.81,0.0,0.0,1.0,0.0,1616657847.3934805,0.0,0.0,0.0
2,-15234.910471,-20849.9452146,-15548.9993229,3.0609816584,4.2442090615,15.7625639817,nan,nan,-inf,0.0,[],[],[],-37.819003,144.94817366666666,1023.3,-37.8193855,144.95074416666668,422.3,-35.84156328,143.1362385,63.2729524,-35.96631476,143.3707744,64.82851725,0.0,0.0,0.0,0.0,0.0,9.81,0.0,0.0,1.0,0.0,1616657847.4331326,0.0,0.0,0.0
2,-15234.916795,-20849.955026,-15548.8589507,2.92312054941,4.06380224897,16.0348688565,nan,nan,-inf,0.0,[],[],[],-37.819003,144.94817366666666,1023.3,-37.81938733333333,144.95074716666667,423.1,-35.84156328,143.1362385,63.2729524,-35.96631476,143.3707744,64.82851725,0.0,0.0,0.0,0.0,0.0,9.81,0.0,0.0,1.0,0.0,1616657847.4728403,0.0,0.0,0.0
2,-15234.8908052,-20849.9775097,-15548.706297,2.87504354081,3.8633254105,16.3144864676,nan,nan,inf,0.0,[],[],[],-37.819003,144.94817366666666,1023.3,-37.81938733333333,144.95074716666667,423.1,-35.84156328,143.1362385,63.2729524,-35.96631476,143.3707744,64.82851725,0.0,0.0,0.0,0.0,0.0,9.81,0.0,0.0,1.0,0.0,1616657847.5186577,0.0,0.0,0.0
2,-15234.8705477,-20850.000243,-15548.5533694,2.81499705091,3.67293445121,16.5890772413,nan,nan,inf,0.0,[],[],[],-37.819003,144.94817366666666,1023.3,-37.81938733333333,144.95074716666667,423.1,-35.84156328,143.1362385,63.2729524,-35.96631476,143.3707744,64.82851725,0.0,0.0,0.0,0.0,0.0,9.81,0.0,0.0,1.0,0.0,1616657847.5591638,0.0,0.0,0.0
2,-15234.8552102,-20850.0231394,-15548.4002326,2.7458566512,3.4921221256,16.8586702105,nan,nan,inf,0.0,[],[],[],-37.819003,144.94817366666666,1023.3,-37.81938733333333,144.95074716666667,423.1,-35.84156328,143.1362385,63.2729524,-35.96631476,143.3707744,64.82851725,0.0,0.0,0.0,0.0,0.0,9.81,0.0,0.0,1.0,0.0,1616657847.596393,0.0,0.0,0.0
2,-15234.8440892,-20850.0461173,-15548.2469477,2.66999407408,3.32042080776,17.1233031628,nan,nan,inf,0.0,[],[],[],-37.819003,144.94817366666666,1023.3,-37.81938733333333,144.95074716666667,423.1,-35.84156328,143.1362385,63.2729524,-35.96631476,143.3707744,64.82851725,0.0,0.0,0.0,0.0,0.0,9.81,0.0,0.0,1.0,0.0,1616657847.6345816,0.0,0.0,0.0
2,-15234.8365752,-20850.0691003,-15548.0935726,2.58936078307,3.15739592052,17.3830209025,nan,nan,-inf,0.0,[],[],[],-37.819003,144.94817366666666,1023.3,-37.81938733333333,144.95074716666667,423.1,-35.84156328,143.1362385,63.2729524,-35.96631476,143.3707744,64.82851725,0.0,0.0,0.0,0.0,0.0,9.81,0.0,0.0,1.0,0.0,1616657847.6752806,0.0,0.0,0.0
2,-15234.8323097,-20850.09596,-15547.939649,2.50602691741,2.99496830326,17.6395161811,nan,nan,-inf,0.0,[],[],[],-37.819004,144.94817383333333,1023.2,-37.81938733333333,144.95074716666667,423.1,-35.84156328,143.1362385,63.2729524,-35.96631476,143.3707744,64.82851725,0.0,0.0,0.0,0.0,0.0,9.81,0.0,0.0,1.0,0.0,1616657847.718639,0.0,0.0,0.0
2,-15234.83081,-20850.1224613,-15547.785775,2.42038016528,2.84124658746,17.8910248566,nan,nan,-inf,0.0,[],[],[],-37.819004,144.94817383333333,1023.2,-37.81938733333333,144.95074716666667,423.1,-35.84156328,143.1362385,63.2729524,-35.96631476,143.3707744,64.82851725,0.0,0.0,0.0,0.0,0.0,9.81,0.0,0.0,1.0,0.0,1616657847.7581937,0.0,0.0,0.0
2,-15234.831649,-20850.1485573,-15547.6320003,2.33358856075,2.69579647468,18.1376169261,nan,nan,-inf,0.0,[],[],[],-37.819004,144.94817383333333,1023.2,-37.81938733333333,144.95074716666667,423.1,-35.84156328,143.1362385,63.2729524,-35.96631476,143.3707744,64.82851725,0.0,0.0,0.0,0.0,0.0,9.81,0.0,0.0,1.0,0.0,1616657847.7959354,0.0,0.0,0.0
2,-15234.8344564,-20850.1742057,-15547.4783722,2.24659778458,2.55820804537,18.3793638113,nan,nan,-inf,0.0,[],[],[],-37.819004,144.94817383333333,1023.2,-37.81938733333333,144.95074716666667,423.1,-35.84156328,143.1362385,63.2729524,-35.96631476,143.3707744,64.82851725,0.0,0.0,0.0,0.0,0.0,9.81,0.0,0.0,1.0,0.0,1616657847.834214,0.0,0.0,0.0
2,-15234.838911,-20850.1993694,-15547.3249363,2.16016811025,2.42809312768,18.6163375132,nan,nan,-inf,0.0,[],[],[],-37.819004,144.94817383333333,1023.2,-37.81938733333333,144.95074716666667,423.1,-35.84156328,143.1362385,63.2729524,-35.96631476,143.3707744,64.82851725,0.0,0.0,0.0,0.0,0.0,9.81,0.0,0.0,1.0,0.0,1616657847.8720062,0.0,0.0,0.0
2,-15234.8447344,-20850.2240158,-15547.1717363,2.07490531021,2.30508316435,18.8486098985,nan,nan,-inf,0.0,[],[],[],-37.819004,144.94817383333333,1023.2,-37.81938733333333,144.95074716666667,423.1,-35.84156328,143.1362385,63.2729524,-35.96631476,143.3707744,64.82851725,0.0,0.0,0.0,0.0,0.0,9.81,0.0,0.0,1.0,0.0,1616657847.911649,0.0,0.0,0.0
2,-15234.8516854,-20850.2481168,-15547.0188146,1.99128652723,2.18882747375,19.076252104,nan,nan,-inf,0.0,[],[],[],-37.819004,144.94817383333333,1023.2,-37.81938733333333,144.95074716666667,423.1,-35.84156328,143.1362385,63.2729524,-35.96631476,143.3707744,64.82851725,0.0,0.0,0.0,0.0,0.0,9.81,0.0,0.0,1.0,0.0,1616657847.9492939,0.0,0.0,0.0
2,-15234.8595547,-20850.2716489,-15546.8662124,1.90968194374,2.07899182206,19.2993340435,nan,nan,-inf,0.0,[],[],[],-37.819004,144.94817383333333,1023.2,-37.81938733333333,144.95074716666667,423.1,-35.84156328,143.1362385,63.2729524,-35.96631476,143.3707744,64.82851725,0.0,0.0,0.0,0.0,0.0,9.81,0.0,0.0,1.0,0.0,1616657847.9869213,0.0,0.0,0.0
2,-15234.8681615,-20850.2945922,-15546.7139698,1.83037294088,1.97525724046,19.517924008,nan,nan,-inf,0.0,[],[],[],-37.819004,144.94817383333333,1023.2,-37.81938733333333,144.95074716666667,423.1,-35.84156328,143.1362385,63.2729524,-35.96631476,143.3707744,64.82851725,0.0,0.0,0.0,0.0,0.0,9.81,0.0,0.0,1.0,0.0,1616657848.024495,0.0,0.0,0.0
2,-15234.877349,-20850.3169308,-15546.5621261,1.75356732164,1.87731903488,19.7320883449,nan,nan,-inf,0.0,[],[],[],-37.819004,144.94817383333333,1023.2,-37.81938733333333,144.95074716666667,423.1,-35.84156328,143.1362385,63.2729524,-35.96631476,143.3707744,64.82851725,0.0,0.0,0.0,0.0,0.0,9.81,0.0,0.0,1.0,0.0,1616657848.062314,0.0,0.0,0.0
2,-15234.8869812,-20850.3386517,-15546.4107199,1.67941371473,1.78488702334,19.9418909126,nan,nan,-inf,0.0,[],[],[],-37.819004,144.94817383333333,1023.2,-37.81938733333333,144.95074716666667,423.1,-35.84156328,143.1362385,63.2729524,-35.96631476,143.3707744,64.82851725,0.0,0.0,0.0,0.0,0.0,9.81,0.0,0.0,1.0,0.0,1616657848.1051838,0.0,0.0,0.0
2,-15234.8969422,-20850.3597464,-15546.259789,1.60800715129,1.69768149569,20.1473938163,nan,nan,-inf,0.0,[],[],[],-37.819004,144.94817383333333,1023.2,-37.81938733333333,144.95074716666667,423.1,-35.84156328,143.1362385,63.2729524,-35.96631476,143.3707744,64.82851725,0.0,0.0,0.0,0.0,0.0,9.81,0.0,0.0,1.0,0.0,1616657848.1455894,0.0,0.0,0.0
2,-15234.9071315,-20850.3802086,-15546.1093711,1.53940341317,1.61543599732,20.3486563198,nan,nan,-inf,0.0,[],[],[],-37.819004,144.94817383333333,1023.2,-37.81938733333333,144.95074716666667,423.1,-35.84156328,143.1362385,63.2729524,-35.96631476,143.3707744,64.82851725,0.0,0.0,0.0,0.0,0.0,9.81,0.0,0.0,1.0,0.0,1616657848.1835694,0.0,0.0,0.0
2,-15234.9174629,-20850.400035,-15545.9595032,1.47362468124,1.53789560154,20.5457350923,nan,nan,-inf,0.0,[],[],[],-37.819004,144.94817383333333,1023.2,-37.81938733333333,144.95074716666667,423.1,-35.84156328,143.1362385,63.2729524,-35.96631476,143.3707744,64.82851725,0.0,0.0,0.0,0.0,0.0,9.81,0.0,0.0,1.0,0.0,1616657848.2230504,0.0,0.0,0.0
2,-15234.9278624,-20850.4192245,-15545.8102222,1.4106658473,1.46481640859,20.7386841653,nan,nan,-inf,0.0,[],[],[],-37.819004,144.94817383333333,1023.2,-37.81938733333333,144.95074716666667,423.1,-35.84156328,143.1362385,63.2729524,-35.96631476,143.3707744,64.82851725,0.0,0.0,0.0,0.0,0.0,9.81,0.0,0.0,1.0,0.0,1616657848.2611077,0.0,0.0,0.0
2,-15234.9382668,-20850.4377786,-15545.6615651,1.35049980222,1.39596508849,20.9275549261,nan,nan,-inf,0.0,[],[],[],-37.819004,144.94817383333333,1023.2,-37.81938733333333,144.95074716666667,423.1,-35.84156328,143.1362385,63.2729524,-35.96631476,143.3707744,64.82851725,0.0,0.0,0.0,0.0,0.0,9.81,0.0,0.0,1.0,0.0,1616657848.2999096,0.0,0.0,0.0
2,-15234.9486227,-20850.4557007,-15545.5135683,1.29308186284,1.33111845838,21.1123961419,nan,nan,-inf,0.0,[],[],[],-37.819004,144.94817383333333,1023.2,-37.81938733333333,144.95074716666667,423.1,-35.84156328,143.1362385,63.2729524,-35.96631476,143.3707744,64.82851725,0.0,0.0,0.0,0.0,0.0,9.81,0.0,0.0,1.0,0.0,1616657848.3417108,0.0,0.0,0.0
2,-15234.9588845,-20850.472996,-15545.3662684,1.23835347412,1.27006308696,21.2932540114,nan,nan,-inf,0.0,[],[],[],-37.819004,144.94817383333333,1023.2,-37.81938733333333,144.95074716666667,423.1,-35.84156328,143.1362385,63.2729524,-35.96631476,143.3707744,64.82851725,0.0,0.0,0.0,0.0,0.0,9.81,0.0,0.0,1.0,0.0,1616657848.3811038,0.0,0.0,0.0
2,-15234.9502945,-20850.4955076,-15545.211575,1.22215828184,1.20170782118,21.4773107496,nan,nan,inf,0.0,[],[],[],-37.819004,144.94817383333333,1023.2,-37.819388333333336,144.95074966666667,424.3,-35.84156328,143.1362385,63.2729524,-35.96631476,143.3707744,64.82851725,0.0,0.0,0.0,0.0,0.0,9.81,0.0,0.0,1.0,0.0,1616657848.4190156,0.0,0.0,0.0
2,-15234.9435896,-20850.5169527,-15545.0578629,1.20288116871,1.13809814598,21.65712713,nan,nan,inf,0.0,[],[],[],-37.819004,144.94817383333333,1023.2,-37.819388333333336,144.95074966666667,424.3,-35.84156328,143.1362385,63.2729524,-35.96631476,143.3707744,64.82851725,0.0,0.0,0.0,0.0,0.0,9.81,0.0,0.0,1.0,0.0,1616657848.4572499,0.0,0.0,0.0
2,-15234.9385235,-20850.5373787,-15544.9051634,1.18117721278,1.07890069458,21.8327557957,nan,nan,inf,0.0,[],[],[],-37.819004,144.94817383333333,1023.2,-37.819388333333336,144.95074966666667,424.3,-35.84156328,143.1362385,63.2729524,-35.96631476,143.3707744,64.82851725,0.0,0.0,0.0,0.0,0.0,9.81,0.0,0.0,1.0,0.0,1616657848.4954205,0.0,0.0,0.0
2,-15234.9348793,-20850.5568309,-15544.7535081,1.15760242754,1.02380695948,22.0042468301,nan,nan,inf,0.0,[],[],[],-37.819004,144.94817383333333,1023.2,-37.819388333333336,144.95074966666667,424.3,-35.84156328,143.1362385,63.2729524,-35.96631476,143.3707744,64.82851725,0.0,0.0,0.0,0.0,0.0,9.81,0.0,0.0,1.0,0.0,1616657848.5342255,0.0,0.0,0.0
2,-15234.9324656,-20850.575352,-15544.6029285,1.13262764036,0.972530995066,22.1716478615,nan,nan,inf,0.0,[],[],[],-37.819004,144.94817383333333,1023.2,-37.819388333333336,144.95074966666667,424.3,-35.84156328,143.1362385,63.2729524,-35.96631476,143.3707744,64.82851725,0.0,0.0,0.0,0.0,0.0,9.81,0.0,0.0,1.0,0.0,1616657848.5719998,0.0,0.0,0.0
2,-15234.9311141,-20850.5929834,-15544.4534565,1.10665042977,0.924807382509,22.3350041874,nan,nan,inf,0.0,[],[],[],-37.819004,144.94817383333333,1023.2,-37.819388333333336,144.95074966666667,424.3,-35.84156328,143.1362385,63.2729524,-35.96631476,143.3707744,64.82851725,0.0,0.0,0.0,0.0,0.0,9.81,0.0,0.0,1.0,0.0,1616657848.6100075,0.0,0.0,0.0
2,-15234.9306761,-20850.6097641,-15544.3051239,1.08000539986,0.880389422279,22.4943589137,nan,nan,-inf,0.0,[],[],[],-37.819004,144.94817383333333,1023.2,-37.819388333333336,144.95074966666667,424.3,-35.84156328,143.1362385,63.2729524,-35.96631476,143.3707744,64.82851725,0.0,0.0,0.0,0.0,0.0,9.81,0.0,0.0,1.0,0.0,1616657848.6478827,0.0,0.0,0.0
2,-15234.9310211,-20850.625732,-15544.1579629,1.05297302891,0.839047524212,22.6497531059,nan,nan,-inf,0.0,[],[],[],-37.819004,144.94817383333333,1023.2,-37.819388333333336,144.95074966666667,424.3,-35.84156328,143.1362385,63.2729524,-35.96631476,143.3707744,64.82851725,0.0,0.0,0.0,0.0,0.0,9.81,0.0,0.0,1.0,0.0,1616657848.6859448,0.0,0.0,0.0
2,-15234.9320341,-20850.6409232,-15544.0120058,1.02578729417,0.800567769707,22.8012259498,nan,nan,-inf,0.0,[],[],[],-37.819004,144.94817383333333,1023.2,-37.819388333333336,144.95074966666667,424.3,-35.84156328,143.1362385,63.2729524,-35.96631476,143.3707744,64.82851725,0.0,0.0,0.0,0.0,0.0,9.81,0.0,0.0,1.0,0.0,1616657848.7244573,0.0,0.0,0.0
2,-15234.9336141,-20850.6553725,-15543.8672849,0.998642245519,0.764750624198,22.948814919,nan,nan,-inf,0.0,[],[],[],-37.819004,144.94817383333333,1023.2,-37.819388333333336,144.95074966666667,424.3,-35.84156328,143.1362385,63.2729524,-35.96631476,143.3707744,64.82851725,0.0,0.0,0.0,0.0,0.0,9.81,0.0,0.0,1.0,0.0,1616657848.762041,0.0,0.0,0.0
2,-15234.9356722,-20850.6691135,-15543.7238326,0.971697675295,0.731409781127,23.0925559468,nan,nan,-inf,0.0,[],[],[],-37.819004,144.94817383333333,1023.2,-37.819388333333336,144.95074966666667,424.3,-35.84156328,143.1362385,63.2729524,-35.96631476,143.3707744,64.82851725,0.0,0.0,0.0,0.0,0.0,9.81,0.0,0.0,1.0,0.0,1616657848.7998252,0.0,0.0,0.0
2,-15234.9381307,-20850.6821786,-15543.5816813,0.945084010407,0.700371121361,23.232483602,nan,nan,-inf,0.0,[],[],[],-37.819004,144.94817383333333,1023.2,-37.819388333333336,144.95074966666667,424.3,-35.84156328,143.1362385,63.2729524,-35.96631476,143.3707744,64.82851725,0.0,0.0,0.0,0.0,0.0,9.81,0.0,0.0,1.0,0.0,1616657848.838604,0.0,0.0,0.0
2,-15234.9409214,-20850.6945991,-15543.4408634,0.918906534792,0.671471774137,23.3686312651,nan,nan,-inf,0.0,[],[],[],-37.819004,144.94817383333333,1023.2,-37.819388333333336,144.95074966666667,424.3,-35.84156328,143.1362385,63.2729524,-35.96631476,143.3707744,64.82851725,0.0,0.0,0.0,0.0,0.0,9.81,0.0,0.0,1.0,0.0,1616657848.8767638,0.0,0.0,0.0
2,-15234.9439846,-20850.7064052,-15543.3014113,0.893249034682,0.644559267604,23.5010313054,nan,nan,-inf,0.0,[],[],[],-37.819004,144.94817383333333,1023.2,-37.819388333333336,144.95074966666667,424.3,-35.84156328,143.1362385,63.2729524,-35.96631476,143.3707744,64.82851725,0.0,0.0,0.0,0.0,0.0,9.81,0.0,0.0,1.0,0.0,1616657848.9167378,0.0,0.0,0.0
2,-15234.9472684,-20850.7176262,-15543.1633573,0.868176946122,0.619490758606,23.6297152564,nan,nan,-inf,0.0,[],[],[],-37.819004,144.94817383333333,1023.2,-37.819388333333336,144.95074966666667,424.3,-35.84156328,143.1362385,63.2729524,-35.96631476,143.3707744,64.82851725,0.0,0.0,0.0,0.0,0.0,9.81,0.0,0.0,1.0,0.0,1616657848.9546885,0.0,0.0,0.0
2,-15234.9507274,-20850.7282903,-15543.0267332,0.843740072917,0.596132332752,23.7547139892,nan,nan,-inf,0.0,[],[],[],-37.819004,144.94817383333333,1023.2,-37.819388333333336,144.95074966666667,424.3,-35.84156328,143.1362385,63.2729524,-35.96631476,143.3707744,64.82851725,0.0,0.0,0.0,0.0,0.0,9.81,0.0,0.0,1.0,0.0,1616657848.992079,0.0,0.0,0.0
2,-15234.9543223,-20850.7384249,-15542.8915711,0.819974933634,0.574358366969,23.8760578829,nan,nan,-inf,0.0,[],[],[],-37.819004,144.94817383333333,1023.2,-37.819388333333336,144.95074966666667,424.3,-35.84156328,143.1362385,63.2729524,-35.96631476,143.3707744,64.82851725,0.0,0.0,0.0,0.0,0.0,9.81,0.0,0.0,1.0,0.0,1616657849.0296652,0.0,0.0,0.0
2,-15234.9580191,-20850.7480568,-15542.7579022,0.796906788058,0.554050947804,23.9937769905,nan,nan,-inf,0.0,[],[],[],-37.819004,144.94817383333333,1023.2,-37.819388333333336,144.95074966666667,424.3,-35.84156328,143.1362385,63.2729524,-35.96631476,143.3707744,64.82851725,0.0,0.0,0.0,0.0,0.0,9.81,0.0,0.0,1.0,0.0,1616657849.0673487,0.0,0.0,0.0
2,-15234.9617883,-20850.7572115,-15542.6257577,0.774551386534,0.535099339547,24.1079012005,nan,nan,-inf,0.0,[],[],[],-37.819004,144.94817383333333,1023.2,-37.819388333333336,144.95074966666667,424.3,-35.84156328,143.1362385,63.2729524,-35.96631476,143.3707744,64.82851725,0.0,0.0,0.0,0.0,0.0,9.81,0.0,0.0,1.0,0.0,1616657849.10701,0.0,0.0,0.0
2,-15234.9656049,-20850.7659142,-15542.4951684,0.752916479596,0.517399497018,24.2184603936,nan,nan,-inf,0.0,[],[],[],-37.819004,144.94817383333333,1023.2,-37.819388333333336,144.95074966666667,424.3,-35.84156328,143.1362385,63.2729524,-35.96631476,143.3707744,64.82851725,0.0,0.0,0.0,0.0,0.0,9.81,0.0,0.0,1.0,0.0,1616657849.1505625,0.0,0.0,0.0
2,-15234.9694473,-20850.774189,-15542.3661642,0.73200312018,0.500853618497,24.3254845924,nan,nan,-inf,0.0,[],[],[],-37.819004,144.94817383333333,1023.2,-37.819388333333336,144.95074966666667,424.3,-35.84156328,143.1362385,63.2729524,-35.96631476,143.3707744,64.82851725,0.0,0.0,0.0,0.0,0.0,9.81,0.0,0.0,1.0,0.0,1616657849.190117,0.0,0.0,0.0
2,-15234.9732972,-20850.7820596,-15542.2387747,0.71180678624,0.485369734819,24.429004106,nan,nan,-inf,0.0,[],[],[],-37.819004,144.94817383333333,1023.2,-37.819388333333336,144.95074966666667,424.3,-35.84156328,143.1362385,63.2729524,-35.96631476,143.3707744,64.82851725,0.0,0.0,0.0,0.0,0.0,9.81,0.0,0.0,1.0,0.0,1616657849.231587,0.0,0.0,0.0
2,-15234.9771393,-20850.7895487,-15542.1130288,0.692318347834,0.47086133115,24.5290496671,nan,nan,-inf,0.0,[],[],[],-37.819004,144.94817383333333,1023.2,-37.819388333333336,144.95074966666667,424.3,-35.84156328,143.1362385,63.2729524,-35.96631476,143.3707744,64.82851725,0.0,0.0,0.0,0.0,0.0,9.81,0.0,0.0,1.0,0.0,1616657849.2705348,0.0,0.0,0.0
2,-15234.9809608,-20850.7966785,-15541.9889546,0.673524899498,0.457246998326,24.6256525623,nan,nan,-inf,0.0,[],[],[],-37.819004,144.94817383333333,1023.2,-37.819388333333336,144.95074966666667,424.3,-35.84156328,143.1362385,63.2729524,-35.96631476,143.3707744,64.82851725,0.0,0.0,0.0,0.0,0.0,9.81,0.0,0.0,1.0,0.0,1616657849.3112717,0.0,0.0,0.0
2,-15234.9847508,-20850.8034703,-15541.8665796,0.655410892529,0.444450414284,24.7188446822,nan,nan,-inf,0.0,[],[],[],-37.819004,144.94817383333333,1023.2,-37.819388333333336,144.95074966666667,424.3,-35.84156328,143.1362385,63.2729524,-35.96631476,143.3707744,64.82851725,0.0,0.0,0.0,0.0,0.0,9.81,0.0,0.0,1.0,0.0,1616657849.3542876,0.0,0.0,0.0
2,-15234.9885011,-20850.8099452,-15541.74593,0.637957458435,0.432399116283,24.8086588607,nan,nan,-inf,0.0,[],[],[],-37.819004,144.94817383333333,1023.2,-37.819388333333336,144.95074966666667,424.3,-35.84156328,143.1362385,63.2729524,-35.96631476,143.3707744,64.82851725,0.0,0.0,0.0,0.0,0.0,9.81,0.0,0.0,1.0,0.0,1616657849.3918197,0.0,0.0,0.0
2,-15234.992205,-20850.8161236,-15541.6270314,0.621144271304,0.421025177863,24.8951287505,nan,nan,-inf,0.0,[],[],[],-37.819004,144.94817383333333,1023.2,-37.819388333333336,144.95074966666667,424.3,-35.84156328,143.1362385,63.2729524,-35.96631476,143.3707744,64.82851725,0.0,0.0,0.0,0.0,0.0,9.81,0.0,0.0,1.0,0.0,1616657849.4302669,0.0,0.0,0.0
2,-15234.9958572,-20850.8220251,-15541.5099083,0.60494953695,0.410264629058,24.9782890023,nan,nan,-inf,0.0,[],[],[],-37.819004,144.94817383333333,1023.2,-37.819388333333336,144.95074966666667,424.3,-35.84156328,143.1362385,63.2729524,-35.96631476,143.3707744,64.82851725,0.0,0.0,0.0,0.0,0.0,9.81,0.0,0.0,1.0,0.0,1616657849.4722767,0.0,0.0,0.0
2,-15234.9994537,-20850.8276688,-15541.394584,0.589350377823,0.400057220191,25.058175355,nan,nan,-inf,0.0,[],[],[],-37.819004,144.94817383333333,1023.2,-37.819388333333336,144.95074966666667,424.3,-35.84156328,143.1362385,63.2729524,-35.96631476,143.3707744,64.82851725,0.0,0.0,0.0,0.0,0.0,9.81,0.0,0.0,1.0,0.0,1616657849.5145953,0.0,0.0,0.0
2,-15235.002992,-20850.8330733,-15541.2810807,0.574323160804,0.390346202728,25.1348247184,nan,nan,-inf,0.0,[],[],[],-37.819004,144.94817383333333,1023.2,-37.819388333333336,144.95074966666667,424.3,-35.84156328,143.1362385,63.2729524,-35.96631476,143.3707744,64.82851725,0.0,0.0,0.0,0.0,0.0,9.81,0.0,0.0,1.0,0.0,1616657849.5560336,0.0,0.0,0.0
2,-15235.0064704,-20850.8382567,-15541.1694194,0.559843775567,0.381078125792,25.2082752468,nan,nan,-inf,0.0,[],[],[],-37.819004,144.94817383333333,1023.2,-37.819388333333336,144.95074966666667,424.3,-35.84156328,143.1362385,63.2729524,-35.96631476,143.3707744,64.82851725,0.0,0.0,0.0,0.0,0.0,9.81,0.0,0.0,1.0,0.0,1616657849.5958908,0.0,0.0,0.0
2,-15235.0098881,-20850.8432363,-15541.0596198,0.545887870051,0.372202647095,25.2785664048,nan,nan,-inf,0.0,[],[],[],-37.819004,144.94817383333333,1023.2,-37.819388333333336,144.95074966666667,424.3,-35.84156328,143.1362385,63.2729524,-35.96631476,143.3707744,64.82851725,0.0,0.0,0.0,0.0,0.0,9.81,0.0,0.0,1.0,0.0,1616657849.635134,0.0,0.0,0.0
2,-15235.0132453,-20850.8480292,-15540.9517002,0.532431048859,0.363672357146,25.3457390236,nan,nan,-inf,0.0,[],[],[],-37.819004,144.94817383333333,1023.2,-37.819388333333336,144.95074966666667,424.3,-35.84156328,143.1362385,63.2729524,-35.96631476,143.3707744,64.82851725,0.0,0.0,0.0,0.0,0.0,9.81,0.0,0.0,1.0,0.0,1616657849.6752124,0.0,0.0,0.0
2,-15235.0165427,-20850.8526518,-15540.8456777,0.519449039541,0.355442615706,25.4098353495,nan,nan,-inf,0.0,[],[],[],-37.819004,144.94817383333333,1023.2,-37.819388333333336,144.95074966666667,424.3,-35.84156328,143.1362385,63.2729524,-35.96631476,143.3707744,64.82851725,0.0,0.0,0.0,0.0,0.0,9.81,0.0,0.0,1.0,0.0,1616657849.7186775,0.0,0.0,0.0
2,-15235.0197817,-20850.85712,-15540.7415676,0.506917831122,0.347471399563,25.4708990842,nan,nan,-inf,0.0,[],[],[],-37.819004,144.94817383333333,1023.2,-37.819388333333336,144.95074966666667,424.3,-35.84156328,143.1362385,63.2729524,-35.96631476,143.3707744,64.82851725,0.0,0.0,0.0,0.0,0.0,9.81,0.0,0.0,1.0,0.0,1616657849.758165,0.0,0.0,0.0
2,-15235.0229642,-20850.8614494,-15540.639384,0.494813788617,0.339719160782,25.5289754154,nan,nan,-inf,0.0,[],[],[],-37.819004,144.94817383333333,1023.2,-37.819388333333336,144.95074966666667,424.3,-35.84156328,143.1362385,63.2729524,-35.96631476,143.3707744,64.82851725,0.0,0.0,0.0,0.0,0.0,9.81,0.0,0.0,1.0,0.0,1616657849.8017764,0.0,0.0,0.0
2,-15235.0260925,-20850.8656549,-15540.5391393,0.483113746843,0.332148694646,25.5841110407,nan,nan,-inf,0.0,[],[],[],-37.819004,144.94817383333333,1023.2,-37.819388333333336,144.95074966666667,424.3,-35.84156328,143.1362385,63.2729524,-35.96631476,143.3707744,64.82851725,0.0,0.0,0.0,0.0,0.0,9.81,0.0,0.0,1.0,0.0,1616657849.8508425,0.0,0.0,0.0
2,-15235.0291693,-20850.8697511,-15540.4408443,0.47179508638,0.324725016587,25.6363541821,nan,nan,-inf,0.0,[],[],[],-37.819004,144.94817383333333,1023.2,-37.819388333333336,144.95074966666667,424.3,-35.84156328,143.1362385,63.2729524,-35.96631476,143.3707744,64.82851725,0.0,0.0,0.0,0.0,0.0,9.81,0.0,0.0,1.0,0.0,1616657849.894516,0.0,0.0,0.0
2,-15235.0321976,-20850.8737521,-15540.3445082,0.460835794129,0.317415247459,25.6857545931,nan,nan,-inf,0.0,[],[],[],-37.819004,144.94817383333333,1023.2,-37.819388333333336,144.95074966666667,424.3,-35.84156328,143.1362385,63.2729524,-35.96631476,143.3707744,64.82851725,0.0,0.0,0.0,0.0,0.0,9.81,0.0,0.0,1.0,0.0,1616657849.9358115,0.0,0.0,0.0
2,-15235.0351806,-20850.8776714,-15540.2501385,0.450214510651,0.310188506559,25.7323635577,nan,nan,-inf,0.0,[],[],[],-37.819004,144.94817383333333,1023.2,-37.819388333333336,144.95074966666667,424.3,-35.84156328,143.1362385,63.2729524,-35.96631476,143.3707744,64.82851725,0.0,0.0,0.0,0.0,0.0,9.81,0.0,0.0,1.0,0.0,1616657849.9758515,0.0,0.0,0.0
2,-15235.0381218,-20850.8815224,-15540.1577411,0.439910566145,0.303015811863,25.7762338818,nan,nan,-inf,0.0,[],[],[],-37.819004,144.94817383333333,1023.2,-37.819388333333336,144.95074966666667,424.3,-35.84156328,143.1362385,63.2729524,-35.96631476,143.3707744,64.82851725,0.0,0.0,0.0,0.0,0.0,9.81,0.0,0.0,1.0,0.0,1616657850.0165243,0.0,0.0,0.0
2,-15235.0410248,-20850.8853177,-15540.0673199,0.429904006711,0.295869986952,25.8174198769,nan,nan,-inf,0.0,[],[],[],-37.819004,144.94817383333333,1023.2,-37.819388333333336,144.95074966666667,424.3,-35.84156328,143.1362385,63.2729524,-35.96631476,143.3707744,64.82851725,0.0,0.0,0.0,0.0,0.0,9.81,0.0,0.0,1.0,0.0,1616657850.0559726,0.0,0.0,0.0
2,-15235.0438935,-20850.8890697,-15539.9788773,0.420175612285,0.288725574197,25.8559773374,nan,nan,-inf,0.0,[],[],[],-37.819004,144.94817383333333,1023.2,-37.819388333333336,144.95074966666667,424.3,-35.84156328,143.1362385,63.2729524,-35.96631476,143.3707744,64.82851725,0.0,0.0,0.0,0.0,0.0,9.81,0.0,0.0,1.0,0.0,1616657850.0953395,0.0,0.0,0.0
2,-15235.0467317,-20850.8927904,-15539.8924139,0.410706907515,0.281558753752,25.8919635097,nan,nan,-inf,0.0,[],[],[],-37.819004,144.94817383333333,1023.2,-37.819388333333336,144.95074966666667,424.3,-35.84156328,143.1362385,63.2729524,-35.96631476,143.3707744,64.82851725,0.0,0.0,0.0,0.0,0.0,9.81,0.0,0.0,1.0,0.0,1616657850.1397762,0.0,0.0,0.0
2,-15235.0495433,-20850.8964912,-15539.8079285,0.40148016661,0.274347267994,25.9254370561,nan,nan,-inf,0.0,[],[],[],-37.819004,144.94817383333333,1023.2,-37.819388333333336,144.95074966666667,424.3,-35.84156328,143.1362385,63.2729524,-35.96631476,143.3707744,64.82851725,0.0,0.0,0.0,0.0,0.0,9.81,0.0,0.0,1.0,0.0,1616657850.1880293,0.0,0.0,0.0
2,-15235.0523322,-20850.9001834,-15539.7254179,0.3924784131,0.267070351025,25.9564580108,nan,nan,-inf,0.0,[],[],[],-37.819004,144.94817383333333,1023.2,-37.819388333333336,144.95074966666667,424.3,-35.84156328,143.1362385,63.2729524,-35.96631476,143.3707744,64.82851725,0.0,0.0,0.0,0.0,0.0,9.81,0.0,0.0,1.0,0.0,1616657850.2316966,0.0,0.0,0.0
2,-15235.0551026,-20850.9038776,-15539.6448774,0.383685415342,0.259708662921,25.9850877312,nan,nan,-inf,0.0,[],[],[],-37.819004,144.94817383333333,1023.2,-37.819388333333336,144.95074966666667,424.3,-35.84156328,143.1362385,63.2729524,-35.96631476,143.3707744,64.82851725,0.0,0.0,0.0,0.0,0.0,9.81,0.0,0.0,1.0,0.0,1616657850.2759857,0.0,0.0,0.0
2,-15235.0578584,-20850.9075841,-15539.5663004,0.375085678414,0.252244228411,26.0113888427,nan,nan,-inf,0.0,[],[],[],-37.819004,144.94817383333333,1023.2,-37.819388333333336,144.95074966666667,424.3,-35.84156328,143.1362385,63.2729524,-35.96631476,143.3707744,64.82851725,0.0,0.0,0.0,0.0,0.0,9.81,0.0,0.0,1.0,0.0,1616657850.3310435,0.0,0.0,0.0
2,-15235.0606035,-20850.911313,-15539.4896784,0.366664433061,0.244660379722,26.0354251785,nan,nan,-inf,0.0,[],[],[],-37.819004,144.94817383333333,1023.2,-37.819388333333336,144.95074966666667,424.3,-35.84156328,143.1362385,63.2729524,-35.96631476,143.3707744,64.82851725,0.0,0.0,0.0,0.0,0.0,9.81,0.0,0.0,1.0,0.0,1616657850.371024,0.0,0.0,0.0
2,-15235.063342,-20850.9150739,-15539.4150012,0.358407622176,0.236941703314,26.057261714,nan,nan,-inf,0.0,[],[],[],-37.819004,144.94817383333333,1023.2,-37.819388333333336,144.95074966666667,424.3,-35.84156328,143.1362385,63.2729524,-35.96631476,143.3707744,64.82851725,0.0,0.0,0.0,0.0,0.0,9.81,0.0,0.0,1.0,0.0,1616657850.4117935,0.0,0.0,0.0
2,-15235.0660776,-20850.9188759,-15539.3422569,0.350301885279,0.229073990281,26.076964497,nan,nan,-inf,0.0,[],[],[],-37.819004,144.94817383333333,1023.2,-37.819388333333336,144.95074966666667,424.3,-35.84156328,143.1362385,63.2729524,-35.96631476,143.3707744,64.82851725,0.0,0.0,0.0,0.0,0.0,9.81,0.0,0.0,1.0,0.0,1616657850.45268,0.0,0.0,0.0
2,-15235.0688143,-20850.9227279,-15539.2714316,0.342334541412,0.221044190187,26.0946005734,nan,nan,-inf,0.0,[],[],[],-37.819004,144.94817383333333,1023.2,-37.819388333333336,144.95074966666667,424.3,-35.84156328,143.1362385,63.2729524,-35.96631476,143.3707744,64.82851725,0.0,0.0,0.0,0.0,0.0,9.81,0.0,0.0,1.0,0.0,1616657850.492092,0.0,0.0,0.0
2,-15235.0715558,-20850.9266383,-15539.20251,0.334493570747,0.212840368155,26.1102379087,nan,nan,-inf,0.0,[],[],[],-37.819004,144.94817383333333,1023.2,-37.819388333333336,144.95074966666667,424.3,-35.84156328,143.1362385,63.2729524,-35.96631476,143.3707744,64.82851725,0.0,0.0,0.0,0.0,0.0,9.81,0.0,0.0,1.0,0.0,1616657850.5365126,0.0,0.0,0.0
2,-15235.0743056,-20850.9306152,-15539.1354748,0.326767843489,0.204451858968,26.1239452757,nan,nan,-inf,0.0,[],[],[],-37.819004,144.94817383333333,1023.2,-37.819388333333336,144.95074966666667,424.3,-35.84156328,143.1362385,63.2729524,-35.96631476,143.3707744,64.82851725,0.0,0.0,0.0,0.0,0.0,9.81,0.0,0.0,1.0,0.0,1616657850.5831537,0.0,0.0,0.0
