sysID,x1,x2,x3,x4,x5,x6,x7,x8,x9,x10,roll,pitch,yaw,gps0_lat,gps0_lon,gps0_alt,gps1_lat,gps1_lon,gps1_alt,gps2_lat,gps2_lon,gps2_alt,gps3_lat,gps3_lon,gps3_alt,gyro_x,gyro_y,gyro_z,accel_x,accel_y,accel_z,qt1,qt2,qt3,qt4,epoch,magVec1,magVec2,magVec3
2,-14628.2109502,-19894.2345245,-15527.8280916,4.52204109924,9.28243455979,-78.3467925754,nan,nan,nan,0.0,[],[],[],-37.8189725,144.94871233333333,1188.3,-37.81925783333333,144.95097583333333,279.8,-35.84156328,143.1362385,63.2729524,-35.96631476,143.3707744,64.82851725,0.0,0.0,0.0,0.0,0.0,9.81,0.0,0.0,1.0,0.0,1616657704.1192303,0.0,0.0,0.0
2,-15029.544009,-20646.2447955,-15531.197511,-6248.28220467,-17819.4447306,-100.54111207,nan,nan,nan,0.0,[],[],[],-37.8189725,144.94871233333333,1188.3,-37.81925783333333,144.95097583333333,279.8,-35.84156328,143.1362385,63.2729524,-35.96631476,143.3707744,64.82851725,0.0,0.0,0.0,0.0,0.0,9.81,0.0,0.0,1.0,0.0,1616657704.1937032,0.0,0.0,0.0
2,-15240.9351719,-20858.9192986,-15532.8566994,-8357.83175715,-13602.5652707,-93.6292592987,nan,nan,nan,0.0,[],[],[],-37.8189725,144.94871233333333,1188.3,-37.81925783333333,144.95097583333333,279.8,-35.84156328,143.1362385,63.2729524,-35.96631476,143.3707744,64.82851725,0.0,0.0,0.0,0.0,0.0,9.81,0.0,0.0,1.0,0.0,1616657704.2551696,0.0,0.0,0.0
2,-15269.0067935,-20933.6624592,-15533.5710339,-5352.95997446,-9195.64014156,-72.8679157821,nan,nan,-inf,0.0,[],[],[],-37.8189725,144.94871233333333,1188.3,-37.81925783333333,144.95097583333333,279.8,-35.84156328,143.1362385,63.2729524,-35.96631476,143.3707744,64.82851725,0.0,0.0,0.0,0.0,0.0,9.81,0.0,0.0,1.0,0.0,1616657704.307688,0.0,0.0,0.0
2,-15273.2053876,-20948.2189886,-15533.7694949,-3545.42152428,-6190.463954,-53.4620911851,nan,nan,inf,0.0,[],[],[],-37.818971166666664,144.94870733333335,1187.6,-37.81925783333333,144.95097583333333,279.8,-35.84156328,143.1362385,63.2729524,-35.96631476,143.3707744,64.82851725,0.0,0.0,0.0,0.0,0.0,9.81,0.0,0.0,1.0,0.0,1616657704.3575156,0.0,0.0,0.0
2,-15269.405534,-20945.6428785,-15533.7586234,-2463.90992649,-4352.83735337,-39.1542511754,nan,nan,inf,0.0,[],[],[],-37.818971166666664,144.94870733333335,1187.6,-37.81925783333333,144.95097583333333,279.8,-35.84156328,143.1362385,63.2729524,-35.96631476,143.3707744,64.82851725,0.0,0.0,0.0,0.0,0.0,9.81,0.0,0.0,1.0,0.0,1616657704.4018102,0.0,0.0,0.0
2,-15263.9718766,-20938.4860984,-15533.6778139,-1794.30367412,-3197.73220696,-29.1562825549,nan,nan,inf,0.0,[],[],[],-37.818971166666664,144.94870733333335,1187.6,-37.81925783333333,144.95097583333333,279.8,-35.84156328,143.1362385,63.2729524,-35.96631476,143.3707744,64.82851725,0.0,0.0,0.0,0.0,0.0,9.81,0.0,0.0,1.0,0.0,1616657704.4413953,0.0,0.0,0.0
2,-15258.5840355,-20930.5884211,-15533.5396452,-1357.93252277,-2437.64326563,-21.7410733666,nan,nan,inf,0.0,[],[],[],-37.818971166666664,144.94870733333335,1187.6,-37.819257666666665,144.950977,280.3,-35.84156328,143.1362385,63.2729524,-35.96631476,143.3707744,64.82851725,0.0,0.0,0.0,0.0,0.0,9.81,0.0,0.0,1.0,0.0,1616657704.4811873,0.0,0.0,0.0
2,-15253.7310643,-20923.1230454,-15533.4158036,-1060.38786251,-1915.17676989,-16.5253003646,nan,nan,inf,0.0,[],[],[],-37.818971166666664,144.94870733333335,1187.6,-37.819257666666665,144.950977,280.3,-35.84156328,143.1362385,63.2729524,-35.96631476,143.3707744,64.82851725,0.0,0.0,0.0,0.0,0.0,9.81,0.0,0.0,1.0,0.0,1616657704.5279565,0.0,0.0,0.0
2,-15249.4724519,-20916.4037814,-15533.3074076,-849.347387768,-1542.24967996,-12.7352771615,nan,nan,-inf,0.0,[],[],[],-37.818971166666664,144.94870733333335,1187.6,-37.819257666666665,144.950977,280.3,-35.84156328,143.1362385,63.2729524,-35.96631476,143.3707744,64.82851725,0.0,0.0,0.0,0.0,0.0,9.81,0.0,0.0,1.0,0.0,1616657704.5658834,0.0,0.0,0.0
2,-15245.7612062,-20910.455749,-15533.212603,-694.660770467,-1267.43501766,-9.89447807755,nan,nan,-inf,0.0,[],[],[],-37.818971166666664,144.94870733333335,1187.6,-37.819257666666665,144.950977,280.3,-35.84156328,143.1362385,63.2729524,-35.96631476,143.3707744,64.82851725,0.0,0.0,0.0,0.0,0.0,9.81,0.0,0.0,1.0,0.0,1616657704.6048331,0.0,0.0,0.0
2,-15242.5246629,-20905.2119607,-15533.1289851,-578.114145947,-1059.3867488,-7.70390968729,nan,nan,-inf,0.0,[],[],[],-37.818971166666664,144.94870733333335,1187.6,-37.819257666666665,144.950977,280.3,-35.84156328,143.1362385,63.2729524,-35.96631476,143.3707744,64.82851725,0.0,0.0,0.0,0.0,0.0,9.81,0.0,0.0,1.0,0.0,1616657704.6472483,0.0,0.0,0.0
2,-15239.6909729,-20900.5829677,-15533.0543384,-488.23484318,-898.229245369,-5.97107274717,nan,nan,-inf,0.0,[],[],[],-37.818971166666664,144.94870733333335,1187.6,-37.819257666666665,144.950977,280.3,-35.84156328,143.1362385,63.2729524,-35.96631476,143.3707744,64.82851725,0.0,0.0,0.0,0.0,0.0,9.81,0.0,0.0,1.0,0.0,1616657704.6865187,0.0,0.0,0.0
2,-15237.1969269,-20896.4813306,-15532.986814,-417.528633913,-770.911022205,-4.56865832812,nan,nan,-inf,0.0,[],[],[],-37.818971166666664,144.94870733333335,1187.6,-37.819257666666665,144.950977,280.3,-35.84156328,143.1362385,63.2729524,-35.96631476,143.3707744,64.82851725,0.0,0.0,0.0,0.0,0.0,9.81,0.0,0.0,1.0,0.0,1616657704.7361672,0.0,0.0,0.0
2,-15234.9892798,-20892.8293495,-15532.9249254,-360.942954063,-668.594283604,-3.41028998754,nan,nan,-inf,0.0,[],[],[],-37.818971166666664,144.94870733333335,1187.6,-37.819257666666665,144.950977,280.3,-35.84156328,143.1362385,63.2729524,-35.96631476,143.3707744,64.82851725,0.0,0.0,0.0,0.0,0.0,9.81,0.0,0.0,1.0,0.0,1616657704.7779477,0.0,0.0,0.0
2,-15233.0239288,-20889.5605436,-15532.8674943,-314.976298233,-585.130991203,-2.43597436028,nan,nan,-inf,0.0,[],[],[],-37.818971166666664,144.94870733333335,1187.6,-37.819257666666665,144.950977,280.3,-35.84156328,143.1362385,63.2729524,-35.96631476,143.3707744,64.82851725,0.0,0.0,0.0,0.0,0.0,9.81,0.0,0.0,1.0,0.0,1616657704.8173268,0.0,0.0,0.0
2,-15231.2645301,-20886.6189004,-15532.8135921,-277.142816363,-516.141547274,-1.60315822314,nan,nan,-inf,0.0,[],[],[],-37.818971166666664,144.94870733333335,1187.6,-37.819257666666665,144.950977,280.3,-35.84156328,143.1362385,63.2729524,-35.96631476,143.3707744,64.82851725,0.0,0.0,0.0,0.0,0.0,9.81,0.0,0.0,1.0,0.0,1616657704.8564754,0.0,0.0,0.0
2,-15229.6811147,-20883.9574632,-15532.7624882,-245.639776243,-458.439969106,-0.881093101765,nan,nan,-inf,0.0,[],[],[],-37.818971166666664,144.94870733333335,1187.6,-37.819257666666665,144.950977,280.3,-35.84156328,143.1362385,63.2729524,-35.96631476,143.3707744,64.82851725,0.0,0.0,0.0,0.0,0.0,9.81,0.0,0.0,1.0,0.0,1616657704.896132,0.0,0.0,0.0
2,-15228.2488823,-20881.5368565,-15532.7136089,-219.13494248,-409.664966373,-0.247197907833,nan,nan,-inf,0.0,[],[],[],-37.818971166666664,144.94870733333335,1187.6,-37.819257666666665,144.950977,280.3,-35.84156328,143.1362385,63.2729524,-35.96631476,143.3707744,64.82851725,0.0,0.0,0.0,0.0,0.0,9.81,0.0,0.0,1.0,0.0,1616657704.9419403,0.0,0.0,0.0
2,-15226.9472057,-20879.323961,-15532.6665056,-196.627059942,-368.037089732,0.315342476999,nan,nan,-inf,0.0,[],[],[],-37.818971166666664,144.94870733333335,1187.6,-37.819257666666665,144.950977,280.3,-35.84156328,143.1362385,63.2729524,-35.96631476,143.3707744,64.82851725,0.0,0.0,0.0,0.0,0.0,9.81,0.0,0.0,1.0,0.0,1616657704.986145,0.0,0.0,0.0
2,-15225.7588266,-20877.2907931,-15532.6208297,-177.352154487,-332.195186212,0.819196503106,nan,nan,-inf,0.0,[],[],[],-37.818971166666664,144.94870733333335,1187.6,-37.819257666666665,144.950977,280.3,-35.84156328,143.1362385,63.2729524,-35.96631476,143.3707744,64.82851725,0.0,0.0,0.0,0.0,0.0,9.81,0.0,0.0,1.0,0.0,1616657705.0311546,0.0,0.0,0.0
2,-15224.6692151,-20875.4135828,-15532.5763148,-160.719272831,-301.083979054,1.27399968699,nan,nan,-inf,0.0,[],[],[],-37.818971166666664,144.94870733333335,1187.6,-37.819257666666665,144.950977,280.3,-35.84156328,143.1362385,63.2729524,-35.96631476,143.3707744,64.82851725,0.0,0.0,0.0,0.0,0.0,9.81,0.0,0.0,1.0,0.0,1616657705.071497,0.0,0.0,0.0
2,-15223.6660585,-20873.6720277,-15532.5327617,-146.265567252,-273.875343606,1.68713507196,nan,nan,-inf,0.0,[],[],[],-37.818971166666664,144.94870733333335,1187.6,-37.819257666666665,144.950977,280.3,-35.84156328,143.1362385,63.2729524,-35.96631476,143.3707744,64.82851725,0.0,0.0,0.0,0.0,0.0,9.81,0.0,0.0,1.0,0.0,1616657705.1133227,0.0,0.0,0.0
2,-15222.7965406,-20872.0425154,-15532.4900327,-133.811231911,-249.890081902,2.06419229776,nan,nan,-inf,0.0,[],[],[],-37.81896866666666,144.94870166666666,1187.0,-37.819257666666665,144.950977,280.3,-35.84156328,143.1362385,63.2729524,-35.96631476,143.3707744,64.82851725,0.0,0.0,0.0,0.0,0.0,9.81,0.0,0.0,1.0,0.0,1616657705.1575286,0.0,0.0,0.0
2,-15221.9815196,-20870.5176062,-15532.4480289,-122.819343016,-228.630766157,2.40967599188,nan,nan,-inf,0.0,[],[],[],-37.81896866666666,144.94870166666666,1187.0,-37.819257666666665,144.950977,280.3,-35.84156328,143.1362385,63.2729524,-35.96631476,143.3707744,64.82851725,0.0,0.0,0.0,0.0,0.0,9.81,0.0,0.0,1.0,0.0,1616657705.2012475,0.0,0.0,0.0
2,-15221.216151,-20869.0838901,-15532.4066968,-113.068458961,-209.669812816,2.72699008434,nan,nan,-inf,0.0,[],[],[],-37.81896866666666,144.94870166666666,1187.0,-37.819257666666665,144.950977,280.3,-35.84156328,143.1362385,63.2729524,-35.96631476,143.3707744,64.82851725,0.0,0.0,0.0,0.0,0.0,9.81,0.0,0.0,1.0,0.0,1616657705.246006,0.0,0.0,0.0
2,-15220.4958046,-20867.7297363,-15532.3660179,-104.375818245,-192.658973151,3.01877113206,nan,nan,-inf,0.0,[],[],[],-37.81896866666666,144.94870166666666,1187.0,-37.819257666666665,144.950977,280.3,-35.84156328,143.1362385,63.2729524,-35.96631476,143.3707744,64.82851725,0.0,0.0,0.0,0.0,0.0,9.81,0.0,0.0,1.0,0.0,1616657705.2858124,0.0,0.0,0.0
2,-15219.8161102,-20866.4450164,-15532.326005,-96.5894035646,-177.312554033,3.28706104795,nan,nan,-inf,0.0,[],[],[],-37.81896866666666,144.94870166666666,1187.0,-37.819257666666665,144.950977,280.3,-35.84156328,143.1362385,63.2729524,-35.96631476,143.3707744,64.82851725,0.0,0.0,0.0,0.0,0.0,9.81,0.0,0.0,1.0,0.0,1616657705.3331535,0.0,0.0,0.0
2,-15219.1756807,-20865.2178515,-15532.2848893,-89.5899062385,-163.38554454,3.53814592547,nan,nan,-inf,0.0,[],[],[],-37.81896866666666,144.94870166666666,1187.0,-37.81925716666667,144.95097716666666,280.6,-35.84156328,143.1362385,63.2729524,-35.96631476,143.3707744,64.82851725,0.0,0.0,0.0,0.0,0.0,9.81,0.0,0.0,1.0,0.0,1616657705.3733883,0.0,0.0,0.0
2,-15218.5673401,-20864.0439114,-15532.2447449,-83.2590590179,-150.693104049,3.76763505435,nan,nan,-inf,0.0,[],[],[],-37.81896866666666,144.94870166666666,1187.0,-37.81925716666667,144.95097716666666,280.6,-35.84156328,143.1362385,63.2729524,-35.96631476,143.3707744,64.82851725,0.0,0.0,0.0,0.0,0.0,9.81,0.0,0.0,1.0,0.0,1616657705.4125028,0.0,0.0,0.0
2,-15217.9875813,-20862.9163756,-15532.2056256,-77.505296032,-139.071630679,3.97666989014,nan,nan,inf,0.0,[],[],[],-37.81896866666666,144.94870166666666,1187.0,-37.81925716666667,144.95097716666666,280.6,-35.84156328,143.1362385,63.2729524,-35.96631476,143.3707744,64.82851725,0.0,0.0,0.0,0.0,0.0,9.81,0.0,0.0,1.0,0.0,1616657705.4594126,0.0,0.0,0.0
2,-15217.4330408,-20861.8292952,-15532.1676043,-72.2495340563,-128.384222358,4.1661682037,nan,nan,inf,0.0,[],[],[],-37.81896866666666,144.94870166666666,1187.0,-37.81925716666667,144.95097716666666,280.6,-35.84156328,143.1362385,63.2729524,-35.96631476,143.3707744,64.82851725,0.0,0.0,0.0,0.0,0.0,9.81,0.0,0.0,1.0,0.0,1616657705.497911,0.0,0.0,0.0
2,-15216.9004654,-20860.7775021,-15532.130769,-67.4227516977,-118.51600326,4.33689404339,nan,nan,inf,0.0,[],[],[],-37.81896866666666,144.94870166666666,1187.0,-37.81925716666667,144.95097716666666,280.6,-35.84156328,143.1362385,63.2729524,-35.96631476,143.3707744,64.82851725,0.0,0.0,0.0,0.0,0.0,9.81,0.0,0.0,1.0,0.0,1616657705.5380764,0.0,0.0,0.0
2,-15216.386681,-20859.7565358,-15532.0952175,-62.9640773484,-109.370398668,4.48951679132,nan,nan,inf,0.0,[],[],[],-37.81896866666666,144.94870166666666,1187.0,-37.81925716666667,144.95097716666666,280.6,-35.84156328,143.1362385,63.2729524,-35.96631476,143.3707744,64.82851725,0.0,0.0,0.0,0.0,0.0,9.81,0.0,0.0,1.0,0.0,1616657705.585985,0.0,0.0,0.0
2,-15215.8885658,-20858.7625824,-15532.0610535,-58.8193184837,-100.866132203,4.62466122518,nan,nan,inf,0.0,[],[],[],-37.81896866666666,144.94870166666666,1187.0,-37.81925716666667,144.95097716666666,280.6,-35.84156328,143.1362385,63.2729524,-35.96631476,143.3707744,64.82851725,0.0,0.0,0.0,0.0,0.0,9.81,0.0,0.0,1.0,0.0,1616657705.6273627,0.0,0.0,0.0
2,-15215.4030347,-20857.7924223,-15532.0283815,-54.9398897091,-92.9347738287,4.74294976984,nan,nan,inf,0.0,[],[],[],-37.81896866666666,144.94870166666666,1187.0,-37.81925716666667,144.95097716666666,280.6,-35.84156328,143.1362385,63.2729524,-35.96631476,143.3707744,64.82851725,0.0,0.0,0.0,0.0,0.0,9.81,0.0,0.0,1.0,0.0,1616657705.6679766,0.0,0.0,0.0
2,-15214.927041,-20856.8433842,-15531.997302,-51.2821166113,-85.5187109625,4.84503771757,nan,nan,inf,0.0,[],[],[],-37.81896866666666,144.94870166666666,1187.0,-37.81925716666667,144.95097716666666,280.6,-35.84156328,143.1362385,63.2729524,-35.96631476,143.3707744,64.82851725,0.0,0.0,0.0,0.0,0.0,9.81,0.0,0.0,1.0,0.0,1616657705.7109773,0.0,0.0,0.0
2,-15214.4576001,-20855.913301,-15531.9679074,-47.8068929987,-78.5694432958,4.9316419186,nan,nan,inf,0.0,[],[],[],-37.81896866666666,144.94870166666666,1187.0,-37.81925716666667,144.95097716666666,280.6,-35.84156328,143.1362385,63.2729524,-35.96631476,143.3707744,64.82851725,0.0,0.0,0.0,0.0,0.0,9.81,0.0,0.0,1.0,0.0,1616657705.7547593,0.0,0.0,0.0
2,-15213.9918404,-20855.0004675,-15531.940277,-44.4796648979,-72.0461299284,5.00356345235,nan,nan,inf,0.0,[],[],[],-37.81896866666666,144.94870166666666,1187.0,-37.81925716666667,144.95097716666666,280.6,-35.84156328,143.1362385,63.2729524,-35.96631476,143.3707744,64.82851725,0.0,0.0,0.0,0.0,0.0,9.81,0.0,0.0,1.0,0.0,1616657705.7960463,0.0,0.0,0.0
2,-15213.5270811,-20854.1035978,-15531.9144731,-41.2706922365,-65.9143370752,5.06170486978,nan,nan,inf,0.0,[],[],[],-37.81896866666666,144.94870166666666,1187.0,-37.81925716666667,144.95097716666666,280.6,-35.84156328,143.1362385,63.2729524,-35.96631476,143.3707744,64.82851725,0.0,0.0,0.0,0.0,0.0,9.81,0.0,0.0,1.0,0.0,1616657705.840951,0.0,0.0,0.0
2,-15213.0609378,-20853.2217821,-15531.8905369,-38.1555074247,-60.1449520523,5.10708274225,nan,nan,inf,0.0,[],[],[],-37.81896866666666,144.94870166666666,1187.0,-37.81925716666667,144.95097716666666,280.6,-35.84156328,143.1362385,63.2729524,-35.96631476,143.3707744,64.82851725,0.0,0.0,0.0,0.0,0.0,9.81,0.0,0.0,1.0,0.0,1616657705.87942,0.0,0.0,0.0
2,-15212.6157972,-20852.3456911,-15531.8686037,-35.2175807091,-54.682286198,5.13959963668,nan,nan,inf,0.0,[],[],[],-37.818966333333336,144.9486985,1186.0,-37.81925716666667,144.95097716666666,280.6,-35.84156328,143.1362385,63.2729524,-35.96631476,143.3707744,64.82851725,0.0,0.0,0.0,0.0,0.0,9.81,0.0,0.0,1.0,0.0,1616657705.9198058,0.0,0.0,0.0
2,-15212.1628063,-20851.484656,-15531.8485422,-32.3241603051,-49.5413329835,5.16192854451,nan,nan,inf,0.0,[],[],[],-37.818966333333336,144.9486985,1186.0,-37.81925716666667,144.95097716666666,280.6,-35.84156328,143.1362385,63.2729524,-35.96631476,143.3707744,64.82851725,0.0,0.0,0.0,0.0,0.0,9.81,0.0,0.0,1.0,0.0,1616657705.957695,0.0,0.0,0.0
2,-15211.7013486,-20850.6386015,-15531.830304,-29.4699386638,-44.7034403263,5.17546484582,nan,nan,inf,0.0,[],[],[],-37.818966333333336,144.9486985,1186.0,-37.81925716666667,144.95097716666666,280.6,-35.84156328,143.1362385,63.2729524,-35.96631476,143.3707744,64.82851725,0.0,0.0,0.0,0.0,0.0,9.81,0.0,0.0,1.0,0.0,1616657705.9966238,0.0,0.0,0.0
2,-15211.231528,-20849.8076714,-15531.8138065,-26.6562057212,-40.1522976923,5.18173013715,nan,nan,inf,0.0,[],[],[],-37.818966333333336,144.9486985,1186.0,-37.81925716666667,144.95097716666666,280.6,-35.84156328,143.1362385,63.2729524,-35.96631476,143.3707744,64.82851725,0.0,0.0,0.0,0.0,0.0,9.81,0.0,0.0,1.0,0.0,1616657706.0351152,0.0,0.0,0.0
2,-15210.7542153,-20848.9921978,-15531.79893,-23.8903554266,-35.8735024217,5.18236928528,nan,nan,inf,0.0,[],[],[],-37.818966333333336,144.9486985,1186.0,-37.81925716666667,144.95097716666666,280.6,-35.84156328,143.1362385,63.2729524,-35.96631476,143.3707744,64.82851725,0.0,0.0,0.0,0.0,0.0,9.81,0.0,0.0,1.0,0.0,1616657706.082944,0.0,0.0,0.0
2,-15210.2710262,-20848.1926771,-15531.7855152,-21.1848671566,-31.8542374414,5.17914309476,nan,nan,inf,0.0,[],[],[],-37.818966333333336,144.9486985,1186.0,-37.81925716666667,144.95097716666666,280.6,-35.84156328,143.1362385,63.2729524,-35.96631476,143.3707744,64.82851725,0.0,0.0,0.0,0.0,0.0,9.81,0.0,0.0,1.0,0.0,1616657706.137613,0.0,0.0,0.0
2,-15209.7842281,-20847.4097491,-15531.7733623,-18.5558475428,-28.0830370028,5.17391503148,nan,nan,inf,0.0,[],[],[],-37.818966333333336,144.9486985,1186.0,-37.81925716666667,144.95097716666666,280.6,-35.84156328,143.1362385,63.2729524,-35.96631476,143.3707744,64.82851725,0.0,0.0,0.0,0.0,0.0,9.81,0.0,0.0,1.0,0.0,1616657706.182203,0.0,0.0,0.0
2,-15209.2965886,-20846.6441795,-15531.7622306,-16.0213055385,-24.5496114656,5.16863070025,nan,nan,inf,0.0,[],[],[],-37.818966333333336,144.9486985,1186.0,-37.81925716666667,144.95097716666666,280.6,-35.84156328,143.1362385,63.2729524,-35.96631476,143.3707744,64.82851725,0.0,0.0,0.0,0.0,0.0,9.81,0.0,0.0,1.0,0.0,1616657706.2315655,0.0,0.0,0.0
2,-15208.8111846,-20845.8968408,-15531.7518398,-13.5993829787,-21.2447014311,5.16528954299,nan,nan,inf,0.0,[],[],[],-37.818966333333336,144.9486985,1186.0,-37.81925716666667,144.95097716666666,280.6,-35.84156328,143.1362385,63.2729524,-35.96631476,143.3707744,64.82851725,0.0,0.0,0.0,0.0,0.0,9.81,0.0,0.0,1.0,0.0,1616657706.284253,0.0,0.0,0.0
2,-15208.3312002,-20845.168691,-15531.741873,-11.3067613911,-18.159936373,5.16590932243,nan,nan,inf,0.0,[],[],[],-37.818966333333336,144.9486985,1186.0,-37.81925716666667,144.95097716666666,280.6,-35.84156328,143.1362385,63.2729524,-35.96631476,143.3707744,64.82851725,0.0,0.0,0.0,0.0,0.0,9.81,0.0,0.0,1.0,0.0,1616657706.3385658,0.0,0.0,0.0
2,-15207.8597374,-20844.4607477,-15531.7319809,-9.15741703349,-15.2876820739,5.17248509188,nan,nan,inf,0.0,[],[],[],-37.818966333333336,144.9486985,1186.0,-37.81925716666667,144.95097716666666,280.6,-35.84156328,143.1362385,63.2729524,-35.96631476,143.3707744,64.82851725,0.0,0.0,0.0,0.0,0.0,9.81,0.0,0.0,1.0,0.0,1616657706.3765476,0.0,0.0,0.0
2,-15207.399661,-20843.7740575,-15531.7217884,-7.16181793722,-12.6208720065,5.18694522839,nan,nan,inf,0.0,[],[],[],-37.818966333333336,144.9486985,1186.0,-37.81925716666667,144.95097716666666,280.6,-35.84156328,143.1362385,63.2729524,-35.96631476,143.3707744,64.82851725,0.0,0.0,0.0,0.0,0.0,9.81,0.0,0.0,1.0,0.0,1616657706.4159303,0.0,0.0,0.0
2,-15206.9534861,-20843.1096633,-15531.7109007,-5.32657313896,-10.1528274408,5.21110753478,nan,nan,inf,0.0,[],[],[],-37.818966333333336,144.9486985,1186.0,-37.8192605,144.9509745,282.3,-35.84156328,143.1362385,63.2729524,-35.96631476,143.3707744,64.82851725,0.0,0.0,0.0,0.0,0.0,9.81,0.0,0.0,1.0,0.0,1616657706.4554896,0.0,0.0,0.0
2,-15206.5131464,-20842.4835065,-15531.7152471,-3.59328248516,-7.92232061326,5.2273946891,nan,nan,inf,0.0,[],[],[],-37.818966333333336,144.9486985,1186.0,-37.8192605,144.9509745,282.3,-35.84156328,143.1362385,63.2729524,-35.96631476,143.3707744,64.82851725,0.0,0.0,0.0,0.0,0.0,9.81,0.0,0.0,1.0,0.0,1616657706.4947734,0.0,0.0,0.0
2,-15206.09338,-20841.8804316,-15531.7170486,-2.04395616757,-5.87054635838,5.25856799437,nan,nan,inf,0.0,[],[],[],-37.818966333333336,144.9486985,1186.0,-37.8192605,144.9509745,282.3,-35.84156328,143.1362385,63.2729524,-35.96631476,143.3707744,64.82851725,0.0,0.0,0.0,0.0,0.0,9.81,0.0,0.0,1.0,0.0,1616657706.5396426,0.0,0.0,0.0
2,-15205.6949851,-20841.3013434,-15531.7159846,-0.670485769367,-3.99189343337,5.30565545776,nan,nan,inf,0.0,[],[],[],-37.818966333333336,144.9486985,1186.0,-37.8192605,144.9509745,282.3,-35.84156328,143.1362385,63.2729524,-35.96631476,143.3707744,64.82851725,0.0,0.0,0.0,0.0,0.0,9.81,0.0,0.0,1.0,0.0,1616657706.5841599,0.0,0.0,0.0
2,-15205.318376,-20840.7470139,-15531.7117398,0.537082944661,-2.28044444845,5.36947603792,nan,nan,inf,0.0,[],[],[],-37.818966333333336,144.9486985,1186.0,-37.8192605,144.9509745,282.3,-35.84156328,143.1362385,63.2729524,-35.96631476,143.3707744,64.82851725,0.0,0.0,0.0,0.0,0.0,9.81,0.0,0.0,1.0,0.0,1616657706.623834,0.0,0.0,0.0
2,-15204.9636473,-20840.2180605,-15531.7040121,1.58987901777,-0.729904636516,5.45062572618,nan,nan,inf,0.0,[],[],[],-37.818966333333336,144.9486985,1186.0,-37.8192605,144.9509745,282.3,-35.84156328,143.1362385,63.2729524,-35.96631476,143.3707744,64.82851725,0.0,0.0,0.0,0.0,0.0,9.81,0.0,0.0,1.0,0.0,1616657706.6616297,0.0,0.0,0.0
2,-15204.6306358,-20839.7149316,-15531.6925194,2.49964219696,0.666425480508,5.54947242423,nan,nan,inf,0.0,[],[],[],-37.818966333333336,144.9486985,1186.0,-37.8192605,144.9509745,282.3,-35.84156328,143.1362385,63.2729524,-35.96631476,143.3707744,64.82851725,0.0,0.0,0.0,0.0,0.0,9.81,0.0,0.0,1.0,0.0,1616657706.700308,0.0,0.0,0.0
2,-15204.3189753,-20839.2378996,-15531.6770046,3.27827777781,1.91563950449,5.66615863647,nan,nan,inf,0.0,[],[],[],-37.818966333333336,144.9486985,1186.0,-37.8192605,144.9509745,282.3,-35.84156328,143.1362385,63.2729524,-35.96631476,143.3707744,64.82851725,0.0,0.0,0.0,0.0,0.0,9.81,0.0,0.0,1.0,0.0,1616657706.7440875,0.0,0.0,0.0
2,-15204.0281444,-20838.7870592,-15531.6572403,3.93752509467,3.02518436896,5.80061079005,nan,nan,inf,0.0,[],[],[],-37.818966333333336,144.9486985,1186.0,-37.8192605,144.9509745,282.3,-35.84156328,143.1362385,63.2729524,-35.96631476,143.3707744,64.82851725,0.0,0.0,0.0,0.0,0.0,9.81,0.0,0.0,1.0,0.0,1616657706.7831376,0.0,0.0,0.0
2,-15203.7575049,-20838.3623324,-15531.6330316,4.48872704516,4.00279849573,5.95255372082,nan,nan,inf,0.0,[],[],[],-37.818966333333336,144.9486985,1186.0,-37.8192605,144.9509745,282.3,-35.84156328,143.1362385,63.2729524,-35.96631476,143.3707744,64.82851725,0.0,0.0,0.0,0.0,0.0,9.81,0.0,0.0,1.0,0.0,1616657706.8309479,0.0,0.0,0.0
2,-15203.5063343,-20837.9634777,-15531.6042184,4.94266964537,4.85643193416,6.12152998386,nan,nan,inf,0.0,[],[],[],-37.818966333333336,144.9486985,1186.0,-37.8192605,144.9509745,282.3,-35.84156328,143.1362385,63.2729524,-35.96631476,143.3707744,64.82851725,0.0,0.0,0.0,0.0,0.0,9.81,0.0,0.0,1.0,0.0,1616657706.8716493,0.0,0.0,0.0
2,-15203.2790699,-20837.585305,-15531.5709587,5.28499122457,5.60844515165,6.30523498604,nan,nan,inf,0.0,[],[],[],-37.81896533333333,144.94869783333334,1184.2,-37.8192605,144.9509745,282.3,-35.84156328,143.1362385,63.2729524,-35.96631476,143.3707744,64.82851725,0.0,0.0,0.0,0.0,0.0,9.81,0.0,0.0,1.0,0.0,1616657706.9114997,0.0,0.0,0.0
2,-15203.0683087,-20837.2324783,-15531.5328745,5.55797043916,6.25032793556,6.50477579474,nan,nan,inf,0.0,[],[],[],-37.81896533333333,144.94869783333334,1184.2,-37.8192605,144.9509745,282.3,-35.84156328,143.1362385,63.2729524,-35.96631476,143.3707744,64.82851725,0.0,0.0,0.0,0.0,0.0,9.81,0.0,0.0,1.0,0.0,1616657706.9517307,0.0,0.0,0.0
2,-15202.8734639,-20836.9043128,-15531.4899084,5.76833652681,6.79051617242,6.71927583685,nan,nan,inf,0.0,[],[],[],-37.81896533333333,144.94869783333334,1184.2,-37.8192605,144.9509745,282.3,-35.84156328,143.1362385,63.2729524,-35.96631476,143.3707744,64.82851725,0.0,0.0,0.0,0.0,0.0,9.81,0.0,0.0,1.0,0.0,1616657706.9907238,0.0,0.0,0.0
2,-15202.6938925,-20836.6000248,-15531.4420365,5.92253816117,7.23727064603,6.94776848863,nan,nan,inf,0.0,[],[],[],-37.81896533333333,144.94869783333334,1184.2,-37.8192605,144.9509745,282.3,-35.84156328,143.1362385,63.2729524,-35.96631476,143.3707744,64.82851725,0.0,0.0,0.0,0.0,0.0,9.81,0.0,0.0,1.0,0.0,1616657707.0281894,0.0,0.0,0.0
2,-15202.5289096,-20836.3187481,-15531.3892666,6.02669075588,7.59861834155,7.18921989621,nan,nan,-inf,0.0,[],[],[],-37.81896533333333,144.94869783333334,1184.2,-37.8192605,144.9509745,282.3,-35.84156328,143.1362385,63.2729524,-35.96631476,143.3707744,64.82851725,0.0,0.0,0.0,0.0,0.0,9.81,0.0,0.0,1.0,0.0,1616657707.0653987,0.0,0.0,0.0
2,-15202.3778019,-20836.0595511,-15531.3316354,6.08654143869,7.88230166737,7.44255053558,nan,nan,-inf,0.0,[],[],[],-37.81896533333333,144.94869783333334,1184.2,-37.8192605,144.9509745,282.3,-35.84156328,143.1362385,63.2729524,-35.96631476,143.3707744,64.82851725,0.0,0.0,0.0,0.0,0.0,9.81,0.0,0.0,1.0,0.0,1616657707.1032658,0.0,0.0,0.0
2,-15202.2398389,-20835.8214515,-15531.2692058,6.10744836384,8.09573626822,7.70665507364,nan,nan,-inf,0.0,[],[],[],-37.81896533333333,144.94869783333334,1184.2,-37.8192605,144.9509745,282.3,-35.84156328,143.1362385,63.2729524,-35.96631476,143.3707744,64.82851725,0.0,0.0,0.0,0.0,0.0,9.81,0.0,0.0,1.0,0.0,1616657707.148959,0.0,0.0,0.0
2,-15202.1142827,-20835.6034318,-15531.2020646,6.09437150291,8.24597761422,7.98042023005,nan,nan,-inf,0.0,[],[],[],-37.81896533333333,144.94869783333334,1184.2,-37.8192605,144.9509745,282.3,-35.84156328,143.1362385,63.2729524,-35.96631476,143.3707744,64.82851725,0.0,0.0,0.0,0.0,0.0,9.81,0.0,0.0,1.0,0.0,1616657707.1909983,0.0,0.0,0.0
2,-15202.0003963,-20835.4044523,-15531.1303186,6.05187249438,8.33969616465,8.26274046371,nan,nan,-inf,0.0,[],[],[],-37.81896533333333,144.94869783333334,1184.2,-37.8192605,144.9509745,282.3,-35.84156328,143.1362385,63.2729524,-35.96631476,143.3707744,64.82851725,0.0,0.0,0.0,0.0,0.0,9.81,0.0,0.0,1.0,0.0,1616657707.2386806,0.0,0.0,0.0
2,-15201.8974511,-20835.2234634,-15531.0540924,5.9841215214,8.38316061779,8.5525314129,nan,nan,-inf,0.0,[],[],[],-37.81896533333333,144.94869783333334,1184.2,-37.8192605,144.9509745,282.3,-35.84156328,143.1362385,63.2729524,-35.96631476,143.3707744,64.82851725,0.0,0.0,0.0,0.0,0.0,9.81,0.0,0.0,1.0,0.0,1616657707.285703,0.0,0.0,0.0
2,-15201.8047323,-20835.0594165,-15530.9735251,5.89490952456,8.38222855783,8.84874110571,nan,nan,-inf,0.0,[],[],[],-37.81896533333333,144.94869783333334,1184.2,-37.8192605,144.9509745,282.3,-35.84156328,143.1362385,63.2729524,-35.96631476,143.3707744,64.82851725,0.0,0.0,0.0,0.0,0.0,9.81,0.0,0.0,1.0,0.0,1616657707.3272624,0.0,0.0,0.0
2,-15201.7215441,-20834.9112729,-15530.8887674,5.78766434469,8.34234368581,9.15035902546,nan,nan,-inf,0.0,[],[],[],-37.81896533333333,144.94869783333334,1184.2,-37.8192605,144.9509745,282.3,-35.84156328,143.1362385,63.2729524,-35.96631476,143.3707744,64.82851725,0.0,0.0,0.0,0.0,0.0,9.81,0.0,0.0,1.0,0.0,1616657707.3669372,0.0,0.0,0.0
2,-15201.6472131,-20834.7780123,-15530.7999795,5.66546963496,8.26853875899,9.45642316628,nan,nan,-inf,0.0,[],[],[],-37.81896533333333,144.94869783333334,1184.2,-37.8192605,144.9509745,282.3,-35.84156328,143.1362385,63.2729524,-35.96631476,143.3707744,64.82851725,0.0,0.0,0.0,0.0,0.0,9.81,0.0,0.0,1.0,0.0,1616657707.408188,0.0,0.0,0.0
2,-15201.5722337,-20834.6691911,-15530.7141301,5.56517996673,8.13849250351,9.76244820602,nan,nan,-inf,0.0,[],[],[],-37.81896533333333,144.94869783333334,1184.2,-37.819263,144.95097283333334,284.3,-35.84156328,143.1362385,63.2729524,-35.96631476,143.3707744,64.82851725,0.0,0.0,0.0,0.0,0.0,9.81,0.0,0.0,1.0,0.0,1616657707.4536905,0.0,0.0,0.0
2,-15201.507007,-20834.5724946,-15530.6242995,5.44469587557,7.98728938335,10.0712591291,nan,nan,-inf,0.0,[],[],[],-37.81896533333333,144.94869783333334,1184.2,-37.819263,144.95097283333334,284.3,-35.84156328,143.1362385,63.2729524,-35.96631476,143.3707744,64.82851725,0.0,0.0,0.0,0.0,0.0,9.81,0.0,0.0,1.0,0.0,1616657707.4922624,0.0,0.0,0.0
2,-15201.4505331,-20834.4870533,-15530.5306834,5.30858504006,7.81829304699,10.382047801,nan,nan,-inf,0.0,[],[],[],-37.81896533333333,144.94869783333334,1184.2,-37.819263,144.95097283333334,284.3,-35.84156328,143.1362385,63.2729524,-35.96631476,143.3707744,64.82851725,0.0,0.0,0.0,0.0,0.0,9.81,0.0,0.0,1.0,0.0,1616657707.5320957,0.0,0.0,0.0
2,-15201.4019142,-20834.4120293,-15530.4334764,5.1606626445,7.63457899286,10.6940707684,nan,nan,-inf,0.0,[],[],[],-37.81896533333333,144.94869783333334,1184.2,-37.819263,144.95097283333334,284.3,-35.84156328,143.1362385,63.2729524,-35.96631476,143.3707744,64.82851725,0.0,0.0,0.0,0.0,0.0,9.81,0.0,0.0,1.0,0.0,1616657707.5738995,0.0,0.0,0.0
2,-15201.3603427,-20834.3466194,-15530.3328705,5.00411175322,7.43894145148,11.0066483498,nan,nan,-inf,0.0,[],[],[],-37.81896533333333,144.94869783333334,1184.2,-37.819263,144.95097283333334,284.3,-35.84156328,143.1362385,63.2729524,-35.96631476,143.3707744,64.82851725,0.0,0.0,0.0,0.0,0.0,9.81,0.0,0.0,1.0,0.0,1616657707.6141448,0.0,0.0,0.0
2,-15201.3250914,-20834.2900577,-15530.2290539,4.84158375969,7.23390371468,11.3191629377,nan,nan,-inf,0.0,[],[],[],-37.81896533333333,144.94869783333334,1184.2,-37.819263,144.95097283333334,284.3,-35.84156328,143.1362385,63.2729524,-35.96631476,143.3707744,64.82851725,0.0,0.0,0.0,0.0,0.0,9.81,0.0,0.0,1.0,0.0,1616657707.6538699,0.0,0.0,0.0
2,-15201.2955043,-20834.2416169,-15530.1222106,4.67528231627,7.02173094788,11.6310566829,nan,nan,-inf,0.0,[],[],[],-37.81896533333333,144.94869783333334,1184.2,-37.819263,144.95097283333334,284.3,-35.84156328,143.1362385,63.2729524,-35.96631476,143.3707744,64.82851725,0.0,0.0,0.0,0.0,0.0,9.81,0.0,0.0,1.0,0.0,1616657707.6926944,0.0,0.0,0.0
2,-15201.2709889,-20834.2006095,-15530.0125191,4.50703357503,6.80444469104,11.9418287135,nan,nan,-inf,0.0,[],[],[],-37.81896533333333,144.94869783333334,1184.2,-37.819263,144.95097283333334,284.3,-35.84156328,143.1362385,63.2729524,-35.96631476,143.3707744,64.82851725,0.0,0.0,0.0,0.0,0.0,9.81,0.0,0.0,1.0,0.0,1616657707.7355928,0.0,0.0,0.0
2,-15201.2510101,-20834.1663875,-15529.9001524,4.33834508097,6.58383840258,12.2510320204,nan,nan,-inf,0.0,[],[],[],-37.81896533333333,144.94869783333334,1184.2,-37.819263,144.95097283333334,284.3,-35.84156328,143.1362385,63.2729524,-35.96631476,143.3707744,64.82851725,0.0,0.0,0.0,0.0,0.0,9.81,0.0,0.0,1.0,0.0,1616657707.774074,0.0,0.0,0.0
2,-15201.235084,-20834.1383425,-15529.7852769,4.17045524908,6.3614935291,12.5582701212,nan,nan,-inf,0.0,[],[],[],-37.81896533333333,144.94869783333334,1184.2,-37.819263,144.95097283333334,284.3,-35.84156328,143.1362385,63.2729524,-35.96631476,143.3707744,64.82851725,0.0,0.0,0.0,0.0,0.0,9.81,0.0,0.0,1.0,0.0,1616657707.8133247,0.0,0.0,0.0
2,-15201.2227726,-20834.1159052,-15529.6680529,4.00437501597,6.13879569257,12.8631935984,nan,nan,-inf,0.0,[],[],[],-37.81896533333333,144.94869783333334,1184.2,-37.819263,144.95097283333334,284.3,-35.84156328,143.1362385,63.2729524,-35.96631476,143.3707744,64.82851725,0.0,0.0,0.0,0.0,0.0,9.81,0.0,0.0,1.0,0.0,1616657707.8541934,0.0,0.0,0.0
2,-15201.2136796,-20834.0985439,-15529.5486339,3.84092297541,5.91695067951,13.16549659,nan,nan,-inf,0.0,[],[],[],-37.81896533333333,144.94869783333334,1184.2,-37.819263,144.95097283333334,284.3,-35.84156328,143.1362385,63.2729524,-35.96631476,143.3707744,64.82851725,0.0,0.0,0.0,0.0,0.0,9.81,0.0,0.0,1.0,0.0,1616657707.8941658,0.0,0.0,0.0
2,-15201.2074462,-20834.0857638,-15529.4271668,3.68075507625,5.69699999333,13.4649132968,nan,nan,-inf,0.0,[],[],[],-37.81896533333333,144.94869783333334,1184.2,-37.819263,144.95097283333334,284.3,-35.84156328,143.1362385,63.2729524,-35.96631476,143.3707744,64.82851725,0.0,0.0,0.0,0.0,0.0,9.81,0.0,0.0,1.0,0.0,1616657707.9314733,0.0,0.0,0.0
2,-15201.2037475,-20834.0771051,-15529.3037917,3.52438977167,5.47983579503,13.7612145576,nan,nan,-inf,0.0,[],[],[],-37.81896533333333,144.94869783333334,1184.2,-37.819263,144.95097283333334,284.3,-35.84156328,143.1362385,63.2729524,-35.96631476,143.3707744,64.82851725,0.0,0.0,0.0,0.0,0.0,9.81,0.0,0.0,1.0,0.0,1616657707.975272,0.0,0.0,0.0
2,-15201.187733,-20834.0646834,-15529.1797924,3.40947977302,5.28123259535,14.0499242194,nan,nan,-inf,0.0,[],[],[],-37.81896416666667,144.94869933333334,1182.4,-37.819263,144.95097283333334,284.3,-35.84156328,143.1362385,63.2729524,-35.96631476,143.3707744,64.82851725,0.0,0.0,0.0,0.0,0.0,9.81,0.0,0.0,1.0,0.0,1616657708.0136044,0.0,0.0,0.0
2,-15201.1753563,-20834.0558834,-15529.0540693,3.29234260278,5.08554203048,14.3356606161,nan,nan,-inf,0.0,[],[],[],-37.81896416666667,144.94869933333334,1182.4,-37.819263,144.95097283333334,284.3,-35.84156328,143.1362385,63.2729524,-35.96631476,143.3707744,64.82851725,0.0,0.0,0.0,0.0,0.0,9.81,0.0,0.0,1.0,0.0,1616657708.0524514,0.0,0.0,0.0
2,-15201.1661679,-20834.0503466,-15528.9267444,3.17427341877,4.89332273307,14.6182452337,nan,nan,-inf,0.0,[],[],[],-37.81896416666667,144.94869933333334,1182.4,-37.819263,144.95097283333334,284.3,-35.84156328,143.1362385,63.2729524,-35.96631476,143.3707744,64.82851725,0.0,0.0,0.0,0.0,0.0,9.81,0.0,0.0,1.0,0.0,1616657708.100414,0.0,0.0,0.0
2,-15201.1597706,-20834.04774,-15528.7979338,3.05632454332,4.70504711276,14.8975262149,nan,nan,-inf,0.0,[],[],[],-37.81896416666667,144.94869933333334,1182.4,-37.819263,144.95097283333334,284.3,-35.84156328,143.1362385,63.2729524,-35.96631476,143.3707744,64.82851725,0.0,0.0,0.0,0.0,0.0,9.81,0.0,0.0,1.0,0.0,1616657708.1428392,0.0,0.0,0.0
2,-15201.1558126,-20834.0477545,-15528.6677484,2.93934521861,4.5211084791,15.1733757098,nan,nan,-inf,0.0,[],[],[],-37.81896416666667,144.94869933333334,1182.4,-37.819263,144.95097283333334,284.3,-35.84156328,143.1362385,63.2729524,-35.96631476,143.3707744,64.82851725,0.0,0.0,0.0,0.0,0.0,9.81,0.0,0.0,1.0,0.0,1616657708.1933513,0.0,0.0,0.0
2,-15201.1539823,-20834.0501045,-15528.5362937,2.82401557456,4.34182850314,15.4456872661,nan,nan,-inf,0.0,[],[],[],-37.81896416666667,144.94869933333334,1182.4,-37.819263,144.95097283333334,284.3,-35.84156328,143.1362385,63.2729524,-35.96631476,143.3707744,64.82851725,0.0,0.0,0.0,0.0,0.0,9.81,0.0,0.0,1.0,0.0,1616657708.2443619,0.0,0.0,0.0
2,-15201.1540034,-20834.0545262,-15528.4036706,2.71087474647,4.16746424249,15.7143734412,nan,nan,-inf,0.0,[],[],[],-37.81896416666667,144.94869933333334,1182.4,-37.819263,144.95097283333334,284.3,-35.84156328,143.1362385,63.2729524,-35.96631476,143.3707744,64.82851725,0.0,0.0,0.0,0.0,0.0,9.81,0.0,0.0,1.0,0.0,1616657708.292041,0.0,0.0,0.0
2,-15201.1556306,-20834.0607769,-15528.2699748,2.60034435809,3.99821480271,15.9793635971,nan,nan,-inf,0.0,[],[],[],-37.81896416666667,144.94869933333334,1182.4,-37.819263,144.95097283333334,284.3,-35.84156328,143.1362385,63.2729524,-35.96631476,143.3707744,64.82851725,0.0,0.0,0.0,0.0,0.0,9.81,0.0,0.0,1.0,0.0,1616657708.333603,0.0,0.0,0.0
2,-15201.158646,-20834.0686331,-15528.1352979,2.49274815931,3.83422759367,16.2406018753,nan,nan,-inf,0.0,[],[],[],-37.81896416666667,144.94869933333334,1182.4,-37.819263,144.95097283333334,284.3,-35.84156328,143.1362385,63.2729524,-35.96631476,143.3707744,64.82851725,0.0,0.0,0.0,0.0,0.0,9.81,0.0,0.0,1.0,0.0,1616657708.3728392,0.0,0.0,0.0
2,-15201.162856,-20834.0778902,-15527.9997273,2.38832846761,3.67560415867,16.4980453432,nan,nan,-inf,0.0,[],[],[],-37.81896416666667,144.94869933333334,1182.4,-37.819263,144.95097283333334,284.3,-35.84156328,143.1362385,63.2729524,-35.96631476,143.3707744,64.82851725,0.0,0.0,0.0,0.0,0.0,9.81,0.0,0.0,1.0,0.0,1616657708.4119406,0.0,0.0,0.0
2,-15201.1788453,-20834.0915542,-15527.874242,2.262856003,3.51728485735,16.7439080932,nan,nan,-inf,0.0,[],[],[],-37.81896416666667,144.94869933333334,1182.4,-37.8192645,144.95096966666668,286.5,-35.84156328,143.1362385,63.2729524,-35.96631476,143.3707744,64.82851725,0.0,0.0,0.0,0.0,0.0,9.81,0.0,0.0,1.0,0.0,1616657708.449884,0.0,0.0,0.0
2,-15201.194506,-20834.1061737,-15527.7477037,2.14503235063,3.36469754045,16.9862187102,nan,nan,-inf,0.0,[],[],[],-37.81896416666667,144.94869933333334,1182.4,-37.8192645,144.95096966666668,286.5,-35.84156328,143.1362385,63.2729524,-35.96631476,143.3707744,64.82851725,0.0,0.0,0.0,0.0,0.0,9.81,0.0,0.0,1.0,0.0,1616657708.4896936,0.0,0.0,0.0
2,-15201.2098456,-20834.121585,-15527.6202019,2.03430571534,3.21785341632,17.2249542847,nan,nan,-inf,0.0,[],[],[],-37.81896416666667,144.94869933333334,1182.4,-37.8192645,144.95096966666668,286.5,-35.84156328,143.1362385,63.2729524,-35.96631476,143.3707744,64.82851725,0.0,0.0,0.0,0.0,0.0,9.81,0.0,0.0,1.0,0.0,1616657708.5285792,0.0,0.0,0.0
2,-15201.2248678,-20834.1376403,-15527.4918217,1.93017964705,3.07672928281,17.4600993704,nan,nan,-inf,0.0,[],[],[],-37.81896416666667,144.94869933333334,1182.4,-37.8192645,144.95096966666668,286.5,-35.84156328,143.1362385,63.2729524,-35.96631476,143.3707744,64.82851725,0.0,0.0,0.0,0.0,0.0,9.81,0.0,0.0,1.0,0.0,1616657708.5684257,0.0,0.0,0.0
2,-15201.2395741,-20834.1542069,-15527.362645,1.83220537248,2.94127284116,17.6916448571,nan,nan,-inf,0.0,[],[],[],-37.81896416666667,144.94869933333334,1182.4,-37.8192645,144.95096966666668,286.5,-35.84156328,143.1362385,63.2729524,-35.96631476,143.3707744,64.82851725,0.0,0.0,0.0,0.0,0.0,9.81,0.0,0.0,1.0,0.0,1616657708.6123204,0.0,0.0,0.0
2,-15201.2539639,-20834.1711651,-15527.2327505,1.73997538467,2.81140736479,17.9195869617,nan,nan,-inf,0.0,[],[],[],-37.81896416666667,144.94869933333334,1182.4,-37.8192645,144.95096966666668,286.5,-35.84156328,143.1362385,63.2729524,-35.96631476,143.3707744,64.82851725,0.0,0.0,0.0,0.0,0.0,9.81,0.0,0.0,1.0,0.0,1616657708.6569498,0.0,0.0,0.0
2,-15201.2680359,-20834.1884079,-15527.1022138,1.65311806928,2.68703579531,18.1439263311,nan,nan,-inf,0.0,[],[],[],-37.81896416666667,144.94869933333334,1182.4,-37.8192645,144.95096966666668,286.5,-35.84156328,143.1362385,63.2729524,-35.96631476,143.3707744,64.82851725,0.0,0.0,0.0,0.0,0.0,9.81,0.0,0.0,1.0,0.0,1616657708.6968427,0.0,0.0,0.0
2,-15201.2817878,-20834.2058396,-15526.9711077,1.57129318729,2.56804433008,18.3646672484,nan,nan,-inf,0.0,[],[],[],-37.81896416666667,144.94869933333334,1182.4,-37.8192645,144.95096966666668,286.5,-35.84156328,143.1362385,63.2729524,-35.96631476,143.3707744,64.82851725,0.0,0.0,0.0,0.0,0.0,9.81,0.0,0.0,1.0,0.0,1616657708.7351327,0.0,0.0,0.0
2,-15201.2952172,-20834.2233749,-15526.8395026,1.49418806562,2.45430555878,18.5818169332,nan,nan,-inf,0.0,[],[],[],-37.81896416666667,144.94869933333334,1182.4,-37.8192645,144.95096966666668,286.5,-35.84156328,143.1362385,63.2729524,-35.96631476,143.3707744,64.82851725,0.0,0.0,0.0,0.0,0.0,9.81,0.0,0.0,1.0,0.0,1616657708.7752545,0.0,0.0,0.0
2,-15201.3083215,-20834.2409378,-15526.7074667,1.42151437418,2.34568119988,18.7953849284,nan,nan,-inf,0.0,[],[],[],-37.81896416666667,144.94869933333334,1182.4,-37.8192645,144.95096966666668,286.5,-35.84156328,143.1362385,63.2729524,-35.96631476,143.3707744,64.82851725,0.0,0.0,0.0,0.0,0.0,9.81,0.0,0.0,1.0,0.0,1616657708.8133926,0.0,0.0,0.0
2,-15201.3210987,-20834.2584612,-15526.5750661,1.35300538949,2.24202448257,19.0053825683,nan,nan,-inf,0.0,[],[],[],-37.81896416666667,144.94869933333334,1182.4,-37.8192645,144.95096966666668,286.5,-35.84156328,143.1362385,63.2729524,-35.96631476,143.3707744,64.82851725,0.0,0.0,0.0,0.0,0.0,9.81,0.0,0.0,1.0,0.0,1616657708.8544433,0.0,0.0,0.0
2,-15201.3335468,-20834.2758859,-15526.442365,1.28841366258,2.14318221458,19.211822517,nan,nan,-inf,0.0,[],[],[],-37.81896416666667,144.94869933333334,1182.4,-37.8192645,144.95096966666668,286.5,-35.84156328,143.1362385,63.2729524,-35.96631476,143.3707744,64.82851725,0.0,0.0,0.0,0.0,0.0,9.81,0.0,0.0,1.0,0.0,1616657708.8925648,0.0,0.0,0.0
2,-15201.3456643,-20834.2931599,-15526.309426,1.22750902358,2.04899657222,19.4147183748,nan,nan,-inf,0.0,[],[],[],-37.81896416666667,144.94869933333334,1182.4,-37.8192645,144.95096966666668,286.5,-35.84156328,143.1362385,63.2729524,-35.96631476,143.3707744,64.82851725,0.0,0.0,0.0,0.0,0.0,9.81,0.0,0.0,1.0,0.0,1616657708.9309323,0.0,0.0,0.0
2,-15201.3574505,-20834.3102377,-15526.1763099,1.1700768673,1.95930664451,19.6140843436,nan,nan,-inf,0.0,[],[],[],-37.81896416666667,144.94869933333334,1182.4,-37.8192645,144.95096966666668,286.5,-35.84156328,143.1362385,63.2729524,-35.96631476,143.3707744,64.82851725,0.0,0.0,0.0,0.0,0.0,9.81,0.0,0.0,1.0,0.0,1616657708.970053,0.0,0.0,0.0
2,-15201.3689052,-20834.3270801,-15526.0430766,1.11591667365,1.87394976036,19.8099349459,nan,nan,-inf,0.0,[],[],[],-37.818965666666664,144.94869966666667,1180.5,-37.8192645,144.95096966666668,286.5,-35.84156328,143.1362385,63.2729524,-35.96631476,143.3707744,64.82851725,0.0,0.0,0.0,0.0,0.0,9.81,0.0,0.0,1.0,0.0,1616657709.0103066,0.0,0.0,0.0
2,-15201.379533,-20834.3486145,-15525.9091383,1.06658704019,1.78416519557,20.0040720018,nan,nan,-inf,0.0,[],[],[],-37.818965666666664,144.94869966666667,1180.5,-37.8192645,144.95096966666668,286.5,-35.84156328,143.1362385,63.2729524,-35.96631476,143.3707744,64.82851725,0.0,0.0,0.0,0.0,0.0,9.81,0.0,0.0,1.0,0.0,1616657709.0627117,0.0,0.0,0.0
2,-15201.3900564,-20834.3695872,-15525.7752397,1.01956358303,1.69921923638,20.1945413107,nan,nan,-inf,0.0,[],[],[],-37.818965666666664,144.94869966666667,1180.5,-37.8192645,144.95096966666668,286.5,-35.84156328,143.1362385,63.2729524,-35.96631476,143.3707744,64.82851725,0.0,0.0,0.0,0.0,0.0,9.81,0.0,0.0,1.0,0.0,1616657709.1126983,0.0,0.0,0.0
2,-15201.4004426,-20834.3899868,-15525.641436,0.974790096207,1.618883544,20.3813696753,nan,nan,-inf,0.0,[],[],[],-37.818965666666664,144.94869966666667,1180.5,-37.8192645,144.95096966666668,286.5,-35.84156328,143.1362385,63.2729524,-35.96631476,143.3707744,64.82851725,0.0,0.0,0.0,0.0,0.0,9.81,0.0,0.0,1.0,0.0,1616657709.1770015,0.0,0.0,0.0
2,-15201.4106638,-20834.409805,-15525.5077815,0.93220349712,1.54293697786,20.5645828726,nan,nan,-inf,0.0,[],[],[],-37.818965666666664,144.94869966666667,1180.5,-37.8192645,144.95096966666668,286.5,-35.84156328,143.1362385,63.2729524,-35.96631476,143.3707744,64.82851725,0.0,0.0,0.0,0.0,0.0,9.81,0.0,0.0,1.0,0.0,1616657709.2286146,0.0,0.0,0.0
2,-15201.4206969,-20834.4290369,-15525.3743294,0.891735519147,1.47116569396,20.7442055922,nan,nan,-inf,0.0,[],[],[],-37.818965666666664,144.94869966666667,1180.5,-37.8192645,144.95096966666668,286.5,-35.84156328,143.1362385,63.2729524,-35.96631476,143.3707744,64.82851725,0.0,0.0,0.0,0.0,0.0,9.81,0.0,0.0,1.0,0.0,1616657709.276609,0.0,0.0,0.0
2,-15201.4305225,-20834.4476802,-15525.2411323,0.853314374214,1.40336336047,20.9202613607,nan,nan,-inf,0.0,[],[],[],-37.818965666666664,144.94869966666667,1180.5,-37.8192645,144.95096966666668,286.5,-35.84156328,143.1362385,63.2729524,-35.96631476,143.3707744,64.82851725,0.0,0.0,0.0,0.0,0.0,9.81,0.0,0.0,1.0,0.0,1616657709.330379,0.0,0.0,0.0
2,-15201.4401251,-20834.4657352,-15525.1082419,0.816865167242,1.33933064429,21.0927726706,nan,nan,-inf,0.0,[],[],[],-37.818965666666664,144.94869966666667,1180.5,-37.8192645,144.95096966666668,286.5,-35.84156328,143.1362385,63.2729524,-35.96631476,143.3707744,64.82851725,0.0,0.0,0.0,0.0,0.0,9.81,0.0,0.0,1.0,0.0,1616657709.3745894,0.0,0.0,0.0
2,-15201.4494922,-20834.4832044,-15524.9757094,0.782311681958,1.27887570741,21.2617608591,nan,nan,-inf,0.0,[],[],[],-37.818965666666664,144.94869966666667,1180.5,-37.8192645,144.95096966666668,286.5,-35.84156328,143.1362385,63.2729524,-35.96631476,143.3707744,64.82851725,0.0,0.0,0.0,0.0,0.0,9.81,0.0,0.0,1.0,0.0,1616657709.4164338,0.0,0.0,0.0
2,-15201.4487437,-20834.5111288,-15524.8481591,0.769148987995,1.20381530975,21.4258034353,nan,nan,inf,0.0,[],[],[],-37.818965666666664,144.94869966666667,1180.5,-37.81926816666667,144.95096783333332,288.2,-35.84156328,143.1362385,63.2729524,-35.96631476,143.3707744,64.82851725,0.0,0.0,0.0,0.0,0.0,9.81,0.0,0.0,1.0,0.0,1616657709.4580898,0.0,0.0,0.0
2,-15201.4490623,-20834.5378717,-15524.7210049,0.75430054901,1.13372533248,21.5862401015,nan,nan,inf,0.0,[],[],[],-37.818965666666664,144.94869966666667,1180.5,-37.81926816666667,144.95096783333332,288.2,-35.84156328,143.1362385,63.2729524,-35.96631476,143.3707744,64.82851725,0.0,0.0,0.0,0.0,0.0,9.81,0.0,0.0,1.0,0.0,1616657709.5006778,0.0,0.0,0.0
2,-15201.4502914,-20834.5634753,-15524.5942981,0.738162361344,1.06828738903,21.7431025104,nan,nan,inf,0.0,[],[],[],-37.818965666666664,144.94869966666667,1180.5,-37.81926816666667,144.95096783333332,288.2,-35.84156328,143.1362385,63.2729524,-35.96631476,143.3707744,64.82851725,0.0,0.0,0.0,0.0,0.0,9.81,0.0,0.0,1.0,0.0,1616657709.5416973,0.0,0.0,0.0
2,-15201.4522933,-20834.5879808,-15524.4680892,0.721069646248,1.0072030114,21.8964208394,nan,nan,inf,0.0,[],[],[],-37.818965666666664,144.94869966666667,1180.5,-37.81926816666667,144.95096783333332,288.2,-35.84156328,143.1362385,63.2729524,-35.96631476,143.3707744,64.82851725,0.0,0.0,0.0,0.0,0.0,9.81,0.0,0.0,1.0,0.0,1616657709.5829012,0.0,0.0,0.0
2,-15201.4549469,-20834.6114287,-15524.3424279,0.703305277571,0.950192214109,22.0462238758,nan,nan,inf,0.0,[],[],[],-37.818965666666664,144.94869966666667,1180.5,-37.81926816666667,144.95096783333332,288.2,-35.84156328,143.1362385,63.2729524,-35.96631476,143.3707744,64.82851725,0.0,0.0,0.0,0.0,0.0,9.81,0.0,0.0,1.0,0.0,1616657709.6269133,0.0,0.0,0.0
2,-15201.4581461,-20834.6338584,-15524.2173631,0.685107052687,0.896992188464,22.192539117,nan,nan,inf,0.0,[],[],[],-37.818965666666664,144.94869966666667,1180.5,-37.81926816666667,144.95096783333332,288.2,-35.84156328,143.1362385,63.2729524,-35.96631476,143.3707744,64.82851725,0.0,0.0,0.0,0.0,0.0,9.81,0.0,0.0,1.0,0.0,1616657709.665683,0.0,0.0,0.0
2,-15201.4617976,-20834.6553084,-15524.0929431,0.66667396923,0.84735611189,22.3353928827,nan,nan,inf,0.0,[],[],[],-37.818965666666664,144.94869966666667,1180.5,-37.81926816666667,144.95096783333332,288.2,-35.84156328,143.1362385,63.2729524,-35.96631476,143.3707744,64.82851725,0.0,0.0,0.0,0.0,0.0,9.81,0.0,0.0,1.0,0.0,1616657709.7064312,0.0,0.0,0.0
2,-15201.46582,-20834.6758164,-15523.9692153,0.648171646472,0.801052059284,22.4748104363,nan,nan,inf,0.0,[],[],[],-37.818965666666664,144.94869966666667,1180.5,-37.81926816666667,144.95096783333332,288.2,-35.84156328,143.1362385,63.2729524,-35.96631476,143.3707744,64.82851725,0.0,0.0,0.0,0.0,0.0,9.81,0.0,0.0,1.0,0.0,1616657709.7534971,0.0,0.0,0.0
2,-15201.4701418,-20834.6954193,-15523.8462266,0.629737010139,0.757862005137,22.6108161139,nan,nan,inf,0.0,[],[],[],-37.818965666666664,144.94869966666667,1180.5,-37.81926816666667,144.95096783333332,288.2,-35.84156328,143.1362385,63.2729524,-35.96631476,143.3707744,64.82851725,0.0,0.0,0.0,0.0,0.0,9.81,0.0,0.0,1.0,0.0,1616657709.7950184,0.0,0.0,0.0
2,-15201.4747009,-20834.714153,-15523.7240233,0.611482342302,0.717580906759,22.7434334583,nan,nan,inf,0.0,[],[],[],-37.818965666666664,144.94869966666667,1180.5,-37.81926816666667,144.95096783333332,288.2,-35.84156328,143.1362385,63.2729524,-35.96631476,143.3707744,64.82851725,0.0,0.0,0.0,0.0,0.0,9.81,0.0,0.0,1.0,0.0,1616657709.8350918,0.0,0.0,0.0
2,-15201.479443,-20834.7320526,-15523.6026507,0.593498783619,0.680015860113,22.8726853569,nan,nan,inf,0.0,[],[],[],-37.818965666666664,144.94869966666667,1180.5,-37.81926816666667,144.95096783333332,288.2,-35.84156328,143.1362385,63.2729524,-35.96631476,143.3707744,64.82851725,0.0,0.0,0.0,0.0,0.0,9.81,0.0,0.0,1.0,0.0,1616657709.8767292,0.0,0.0,0.0
2,-15201.484321,-20834.7491525,-15523.4821536,0.575859362657,0.64498532104,22.9985941818,nan,nan,inf,0.0,[],[],[],-37.818965666666664,144.94869966666667,1180.5,-37.81926816666667,144.95096783333332,288.2,-35.84156328,143.1362385,63.2729524,-35.96631476,143.3707744,64.82851725,0.0,0.0,0.0,0.0,0.0,9.81,0.0,0.0,1.0,0.0,1616657709.915192,0.0,0.0,0.0
2,-15201.4892943,-20834.7654862,-15523.362576,0.558621616656,0.612318385407,23.12118193,nan,nan,-inf,0.0,[],[],[],-37.818965666666664,144.94869966666667,1180.5,-37.81926816666667,144.95096783333332,288.2,-35.84156328,143.1362385,63.2729524,-35.96631476,143.3707744,64.82851725,0.0,0.0,0.0,0.0,0.0,9.81,0.0,0.0,1.0,0.0,1616657709.9669528,0.0,0.0,0.0
2,-15201.4943277,-20834.7810864,-15523.2439612,0.541829859006,0.581854122651,23.2404703649,nan,nan,-inf,0.0,[],[],[],-37.818965666666664,144.94869966666667,1180.5,-37.81926816666667,144.95096783333332,288.2,-35.84156328,143.1362385,63.2729524,-35.96631476,143.3707744,64.82851725,0.0,0.0,0.0,0.0,0.0,9.81,0.0,0.0,1.0,0.0,1616657710.00528,0.0,0.0,0.0
2,-15201.4993909,-20834.795985,-15523.1263517,0.525517141042,0.553440957774,23.3564811545,nan,nan,-inf,0.0,[],[],[],-37.818965666666664,144.94869966666667,1180.5,-37.81926816666667,144.95096783333332,288.2,-35.84156328,143.1362385,63.2729524,-35.96631476,143.3707744,64.82851725,0.0,0.0,0.0,0.0,0.0,9.81,0.0,0.0,1.0,0.0,1616657710.043353,0.0,0.0,0.0
2,-15201.5044581,-20834.8102132,-15523.0097891,0.509706949211,0.526936097485,23.4692360086,nan,nan,-inf,0.0,[],[],[],-37.818965666666664,144.94869966666667,1180.5,-37.81926816666667,144.95096783333332,288.2,-35.84156328,143.1362385,63.2729524,-35.96631476,143.3707744,64.82851725,0.0,0.0,0.0,0.0,0.0,9.81,0.0,0.0,1.0,0.0,1616657710.0827503,0.0,0.0,0.0
2,-15201.5095074,-20834.8238014,-15522.8943141,0.494414672995,0.50220499663,23.5787568125,nan,nan,-inf,0.0,[],[],[],-37.818965666666664,144.94869966666667,1180.5,-37.81926816666667,144.95096783333332,288.2,-35.84156328,143.1362385,63.2729524,-35.96631476,143.3707744,64.82851725,0.0,0.0,0.0,0.0,0.0,9.81,0.0,0.0,1.0,0.0,1616657710.124349,0.0,0.0,0.0
2,-15201.5145204,-20834.836779,-15522.7799667,0.47964887412,0.479120861553,23.6850657567,nan,nan,-inf,0.0,[],[],[],-37.818965666666664,144.94869966666667,1180.5,-37.81926816666667,144.95096783333332,288.2,-35.84156328,143.1362385,63.2729524,-35.96631476,143.3707744,64.82851725,0.0,0.0,0.0,0.0,0.0,9.81,0.0,0.0,1.0,0.0,1616657710.1711357,0.0,0.0,0.0
2,-15201.5194816,-20834.8491749,-15522.6667858,0.465412383495,0.45756418732,23.7881854626,nan,nan,-inf,0.0,[],[],[],-37.818965666666664,144.94869966666667,1180.5,-37.81926816666667,144.95096783333332,288.2,-35.84156328,143.1362385,63.2729524,-35.96631476,143.3707744,64.82851725,0.0,0.0,0.0,0.0,0.0,9.81,0.0,0.0,1.0,0.0,1616657710.2179532,0.0,0.0,0.0
2,-15201.5243782,-20834.8610174,-15522.5548092,0.451703248695,0.437422326115,23.8881391028,nan,nan,-inf,0.0,[],[],[],-37.818965666666664,144.94869966666667,1180.5,-37.81926816666667,144.95096783333332,288.2,-35.84156328,143.1362385,63.2729524,-35.96631476,143.3707744,64.82851725,0.0,0.0,0.0,0.0,0.0,9.81,0.0,0.0,1.0,0.0,1616657710.2570076,0.0,0.0,0.0
2,-15201.5291999,-20834.8723335,-15522.4440739,0.438515551755,0.418589084371,23.984950516,nan,nan,-inf,0.0,[],[],[],-37.818965666666664,144.94869966666667,1180.5,-37.81926816666667,144.95096783333332,288.2,-35.84156328,143.1362385,63.2729524,-35.96631476,143.3707744,64.82851725,0.0,0.0,0.0,0.0,0.0,9.81,0.0,0.0,1.0,0.0,1616657710.2962167,0.0,0.0,0.0
2,-15201.5339383,-20834.8831501,-15522.3346156,0.425840114389,0.400964346444,24.0786443158,nan,nan,-inf,0.0,[],[],[],-37.8183436121,144.962736933,5402.51793226,-37.81926816666667,144.95096783333332,288.2,-35.84156328,143.1362385,63.2729524,-35.96631476,143.3707744,64.82851725,0.0,0.0,0.0,0.0,0.0,9.81,0.0,0.0,1.0,0.0,1616657710.3470128,0.0,0.0,0.0
2,-15133.7350422,-20819.4060354,-15525.3174032,99.1885712255,19.5736230713,17.7705003873,nan,nan,inf,0.0,[],[],[],-37.8183436121,144.962736933,5402.51793226,-37.81926816666667,144.95096783333332,288.2,-35.84156328,143.1362385,63.2729524,-35.96631476,143.3707744,64.82851725,0.0,0.0,0.0,0.0,0.0,9.81,0.0,0.0,1.0,0.0,1616657710.3910325,0.0,0.0,0.0
2,-15069.9764257,-20802.7864371,-15528.2810079,188.707599109,39.9851504446,11.6125946818,nan,nan,inf,0.0,[],[],[],-37.8183436121,144.962736933,5402.51793226,-37.81926816666667,144.95096783333332,288.2,-35.84156328,143.1362385,63.2729524,-35.96631476,143.3707744,64.82851725,0.0,0.0,0.0,0.0,0.0,9.81,0.0,0.0,1.0,0.0,1616657710.4335914,0.0,0.0,0.0
2,-15009.8451249,-20785.4380916,-15531.1806896,270.412763372,61.085811018,5.64825208991,nan,nan,inf,0.0,[],[],[],-37.8183436121,144.962736933,5402.51793226,-37.81926966666666,144.950967,289.8,-35.84156328,143.1362385,63.2729524,-35.96631476,143.3707744,64.82851725,0.0,0.0,0.0,0.0,0.0,9.81,0.0,0.0,1.0,0.0,1616657710.4727829,0.0,0.0,0.0
2,-14953.0588841,-20767.7234801,-15533.9816669,345.349174728,82.3632081916,-0.0812157972284,nan,nan,inf,0.0,[],[],[],-37.8183436121,144.962736933,5402.51793226,-37.81926966666666,144.950967,289.8,-35.84156328,143.1362385,63.2729524,-35.96631476,143.3707744,64.82851725,0.0,0.0,0.0,0.0,0.0,9.81,0.0,0.0,1.0,0.0,1616657710.5156567,0.0,0.0,0.0
2,-14899.4392679,-20749.9503376,-15536.6516889,414.254356294,103.373100827,-5.53467621097,nan,nan,inf,0.0,[],[],[],-37.8183436121,144.962736933,5402.51793226,-37.81926966666666,144.950967,289.8,-35.84156328,143.1362385,63.2729524,-35.96631476,143.3707744,64.82851725,0.0,0.0,0.0,0.0,0.0,9.81,0.0,0.0,1.0,0.0,1616657710.565056,0.0,0.0,0.0
2,-14848.876117,-20732.3867225,-15539.1669682,477.639887617,123.732643161,-10.6758864021,nan,nan,inf,0.0,[],[],[],-37.8183436121,144.962736933,5402.51793226,-37.81926966666666,144.950967,289.8,-35.84156328,143.1362385,63.2729524,-35.96631476,143.3707744,64.82851725,0.0,0.0,0.0,0.0,0.0,9.81,0.0,0.0,1.0,0.0,1616657710.60597,0.0,0.0,0.0
2,-14801.3064633,-20715.2583886,-15541.5096066,535.84003412,143.129579761,-15.4726228178,nan,nan,inf,0.0,[],[],[],-37.8183436121,144.962736933,5402.51793226,-37.81926966666666,144.950967,289.8,-35.84156328,143.1362385,63.2729524,-35.96631476,143.3707744,64.82851725,0.0,0.0,0.0,0.0,0.0,9.81,0.0,0.0,1.0,0.0,1616657710.6454582,0.0,0.0,0.0
2,-14756.6951123,-20698.7494379,-15543.6671756,589.051820127,161.321740226,-19.8966689155,nan,nan,inf,0.0,[],[],[],-37.8183436121,144.962736933,5402.51793226,-37.81926966666666,144.950967,289.8,-35.84156328,143.1362385,63.2729524,-35.96631476,143.3707744,64.82851725,0.0,0.0,0.0,0.0,0.0,9.81,0.0,0.0,1.0,0.0,1616657710.6870563,0.0,0.0,0.0
2,-14715.0196354,-20683.0033824,-15545.6321892,637.364370779,178.132884313,-23.923541084,nan,nan,inf,0.0,[],[],[],-37.8183436121,144.962736933,5402.51793226,-37.81926966666666,144.950967,289.8,-35.84156328,143.1362385,63.2729524,-35.96631476,143.3707744,64.82851725,0.0,0.0,0.0,0.0,0.0,9.81,0.0,0.0,1.0,0.0,1616657710.7331295,0.0,0.0,0.0
2,-14676.2597961,-20668.1251639,-15547.4014421,680.779831148,193.445539991,-27.5320085477,nan,nan,inf,0.0,[],[],[],-37.8183436121,144.962736933,5402.51793226,-37.81926966666666,144.950967,289.8,-35.84156328,143.1362385,63.2729524,-35.96631476,143.3707744,64.82851725,0.0,0.0,0.0,0.0,0.0,9.81,0.0,0.0,1.0,0.0,1616657710.7791688,0.0,0.0,0.0
2,-14640.3911029,-20654.1842789,-15548.9752338,719.228445961,207.191607665,-30.7034469036,nan,nan,inf,0.0,[],[],[],-37.8183436121,144.962736933,5402.51793226,-37.81926966666666,144.950967,289.8,-35.84156328,143.1362385,63.2729524,-35.96631476,143.3707744,64.82851725,0.0,0.0,0.0,0.0,0.0,9.81,0.0,0.0,1.0,0.0,1616657710.8260095,0.0,0.0,0.0
2,-14607.3818046,-20641.2188569,-15550.3565314,752.580637841,219.341693188,-33.4210956857,nan,nan,inf,0.0,[],[],[],-37.8183436121,144.962736933,5402.51793226,-37.81926966666666,144.950967,289.8,-35.84156328,143.1362385,63.2729524,-35.96631476,143.3707744,64.82851725,0.0,0.0,0.0,0.0,0.0,9.81,0.0,0.0,1.0,0.0,1616657710.8690324,0.0,0.0,0.0
2,-14577.1923663,-20629.2403736,-15551.550133,780.658966098,229.894305416,-35.6693528453,nan,nan,inf,0.0,[],[],[],-37.81896966666667,144.94869883333334,1176.9,-37.81926966666666,144.950967,289.8,-35.84156328,143.1362385,63.2729524,-35.96631476,143.3707744,64.82851725,0.0,0.0,0.0,0.0,0.0,9.81,0.0,0.0,1.0,0.0,1616657710.9150624,0.0,0.0,0.0
2,-14635.3481788,-20646.4960596,-15547.9319135,630.043953585,197.146519839,-22.9866328701,nan,nan,-inf,0.0,[],[],[],-37.81896966666667,144.94869883333334,1176.9,-37.81926966666666,144.950967,289.8,-35.84156328,143.1362385,63.2729524,-35.96631476,143.3707744,64.82851725,0.0,0.0,0.0,0.0,0.0,9.81,0.0,0.0,1.0,0.0,1616657710.9623919,0.0,0.0,0.0
2,-14688.0061294,-20661.2412199,-15544.6653107,490.970452612,168.940786195,-11.5834908003,nan,nan,-inf,0.0,[],[],[],-37.81896966666667,144.94869883333334,1176.9,-37.81926966666666,144.950967,289.8,-35.84156328,143.1362385,63.2729524,-35.96631476,143.3707744,64.82851725,0.0,0.0,0.0,0.0,0.0,9.81,0.0,0.0,1.0,0.0,1616657711.007475,0.0,0.0,0.0
2,-14736.2782778,-20673.9873264,-15541.6701845,362.545372742,145.127954299,-1.43798463845,nan,nan,-inf,0.0,[],[],[],-37.81896966666667,144.94869883333334,1176.9,-37.81926966666666,144.950967,289.8,-35.84156328,143.1362385,63.2729524,-35.96631476,143.3707744,64.82851725,0.0,0.0,0.0,0.0,0.0,9.81,0.0,0.0,1.0,0.0,1616657711.0474453,0.0,0.0,0.0
2,-14780.9325769,-20685.1004876,-15538.8951154,244.248322902,125.648863844,7.44595606332,nan,nan,-inf,0.0,[],[],[],-37.81896966666667,144.94869883333334,1176.9,-37.81926966666666,144.950967,289.8,-35.84156328,143.1362385,63.2729524,-35.96631476,143.3707744,64.82851725,0.0,0.0,0.0,0.0,0.0,9.81,0.0,0.0,1.0,0.0,1616657711.085913,0.0,0.0,0.0
2,-14822.4923157,-20694.8431736,-15536.3093306,135.817745832,110.459260292,15.0559893048,nan,nan,-inf,0.0,[],[],[],-37.81896966666667,144.94869883333334,1176.9,-37.81926966666666,144.950967,289.8,-35.84156328,143.1362385,63.2729524,-35.96631476,143.3707744,64.82851725,0.0,0.0,0.0,0.0,0.0,9.81,0.0,0.0,1.0,0.0,1616657711.1342595,0.0,0.0,0.0
2,-14861.3038135,-20703.4040942,-15533.8967477,37.1517800429,99.4617839577,21.3894150375,nan,nan,-inf,0.0,[],[],[],-37.81896966666667,144.94869883333334,1176.9,-37.81926966666666,144.950967,289.8,-35.84156328,143.1362385,63.2729524,-35.96631476,143.3707744,64.82851725,0.0,0.0,0.0,0.0,0.0,9.81,0.0,0.0,1.0,0.0,1616657711.1800816,0.0,0.0,0.0
2,-14897.5850808,-20710.9211991,-15531.651125,-51.7748515751,92.4502953449,26.4694206368,nan,nan,-inf,0.0,[],[],[],-37.81896966666667,144.94869883333334,1176.9,-37.81926966666666,144.950967,289.8,-35.84156328,143.1362385,63.2729524,-35.96631476,143.3707744,64.82851725,0.0,0.0,0.0,0.0,0.0,9.81,0.0,0.0,1.0,0.0,1616657711.2253642,0.0,0.0,0.0
2,-14931.4625804,-20717.5003171,-15529.5718573,-130.977846838,89.0710119405,30.3576770772,nan,nan,-inf,0.0,[],[],[],-37.81896966666667,144.94869883333334,1176.9,-37.81926966666666,144.950967,289.8,-35.84156328,143.1362385,63.2729524,-35.96631476,143.3707744,64.82851725,0.0,0.0,0.0,0.0,0.0,9.81,0.0,0.0,1.0,0.0,1616657711.270093,0.0,0.0,0.0
2,-14963.0001716,-20723.2305532,-15527.6602617,-200.514821113,88.8035538991,33.1619946751,nan,nan,-inf,0.0,[],[],[],-37.81896966666667,144.94869883333334,1176.9,-37.81926966666666,144.950967,289.8,-35.84156328,143.1362385,63.2729524,-35.96631476,143.3707744,64.82851725,0.0,0.0,0.0,0.0,0.0,9.81,0.0,0.0,1.0,0.0,1616657711.3117566,0.0,0.0,0.0
2,-14992.2226038,-20728.196786,-15525.9163746,-260.522413057,90.9632532215,35.0383185002,nan,nan,-inf,0.0,[],[],[],-37.81896966666667,144.94869883333334,1176.9,-37.81926966666666,144.950967,289.8,-35.84156328,143.1362385,63.2729524,-35.96631476,143.3707744,64.82851725,0.0,0.0,0.0,0.0,0.0,9.81,0.0,0.0,1.0,0.0,1616657711.363405,0.0,0.0,0.0
2,-15019.1349432,-20732.4892012,-15524.3363619,-311.24050645,94.7242612941,36.1869021399,nan,nan,-inf,0.0,[],[],[],-37.81896966666667,144.94869883333334,1176.9,-37.81926966666666,144.950967,289.8,-35.84156328,143.1362385,63.2729524,-35.96631476,143.3707744,64.82851725,0.0,0.0,0.0,0.0,0.0,9.81,0.0,0.0,1.0,0.0,1616657711.4049878,0.0,0.0,0.0
2,-15043.7387331,-20736.2096461,-15522.9106733,-353.025262933,99.1612932683,36.8430078869,nan,nan,-inf,0.0,[],[],[],-37.81896966666667,144.94869883333334,1176.9,-37.81926283333333,144.9509725,288.7,-35.84156328,143.1362385,63.2729524,-35.96631476,143.3707744,64.82851725,0.0,0.0,0.0,0.0,0.0,9.81,0.0,0.0,1.0,0.0,1616657711.4433608,0.0,0.0,0.0
2,-15066.0546582,-20739.4584868,-15521.6090253,-386.390717968,103.345185351,37.2676147604,nan,nan,-inf,0.0,[],[],[],-37.81896966666667,144.94869883333334,1176.9,-37.81926283333333,144.9509725,288.7,-35.84156328,143.1362385,63.2729524,-35.96631476,143.3707744,64.82851725,0.0,0.0,0.0,0.0,0.0,9.81,0.0,0.0,1.0,0.0,1616657711.4844966,0.0,0.0,0.0
2,-15086.1047327,-20742.3824489,-15520.422779,-411.886156901,106.293584837,37.7152139443,nan,nan,-inf,0.0,[],[],[],-37.81896966666667,144.94869883333334,1176.9,-37.81926283333333,144.9509725,288.7,-35.84156328,143.1362385,63.2729524,-35.96631476,143.3707744,64.82851725,0.0,0.0,0.0,0.0,0.0,9.81,0.0,0.0,1.0,0.0,1616657711.5290918,0.0,0.0,0.0
2,-15103.9486559,-20745.1224784,-15519.3230899,-430.205490865,107.155699641,38.4302401731,nan,nan,-inf,0.0,[],[],[],-37.81896966666667,144.94869883333334,1176.9,-37.81926283333333,144.9509725,288.7,-35.84156328,143.1362385,63.2729524,-35.96631476,143.3707744,64.82851725,0.0,0.0,0.0,0.0,0.0,9.81,0.0,0.0,1.0,0.0,1616657711.574577,0.0,0.0,0.0
