sysID,x1,x2,x3,x4,x5,x6,x7,x8,x9,x10,roll,pitch,yaw,gps0_lat,gps0_lon,gps0_alt,gps1_lat,gps1_lon,gps1_alt,gps2_lat,gps2_lon,gps2_alt,gps3_lat,gps3_lon,gps3_alt,gyro_x,gyro_y,gyro_z,accel_x,accel_y,accel_z,qt1,qt2,qt3,qt4,epoch,magVec1,magVec2,magVec3
1,-15556.4041756,-21538.4220844,308.184384981,0.107424832043,0.0997536961834,0.324271699089,0.200468052997,-0.170843045165,0.819829216734,0.508434134412,[],[],[],-37.81734216666667,144.95066133333333,400.6,-37.818952333333336,144.95124833333333,271.4,-35.84156328,143.1362385,63.2729524,-35.96631476,143.3707744,64.82851725,-0.001194,0.009362,0.009641,4.866937,-7.45133,3.926351,0.200468,-0.170843,0.819829,0.508434,1616653372.882069,-0.151242,0.471162,0.681704
1,-15556.4009529,-21538.4190918,308.194113132,0.214849664085,0.199507392367,0.648543398179,0.200468052997,-0.170843045165,0.819829216734,0.508434134412,[],[],[],-37.81734216666667,144.95066133333333,400.6,-37.818952333333336,144.95124833333333,271.4,-35.84156328,143.1362385,63.2729524,-35.96631476,143.3707744,64.82851725,-0.001194,0.009362,0.009641,4.866937,-7.45133,3.926351,0.200468,-0.170843,0.819829,0.508434,1616653372.9158094,-0.151242,0.471162,0.681704
1,-15556.3955816,-21538.4141041,308.210326717,0.322274496128,0.29926108855,0.972815097268,0.200468052997,-0.170843045165,0.819829216734,0.508434134412,[],[],[],-37.81734216666667,144.95066133333333,400.6,-37.818952333333336,144.95124833333333,271.4,-35.84156328,143.1362385,63.2729524,-35.96631476,143.3707744,64.82851725,-0.001194,0.009362,0.009641,4.866937,-7.45133,3.926351,0.200468,-0.170843,0.819829,0.508434,1616653372.9683082,-0.151242,0.471162,0.681704
1,-15556.3880619,-21538.4071213,308.233025736,0.429699328171,0.399014784734,1.29708679636,0.200468052997,-0.170843045165,0.819829216734,0.508434134412,[],[],[],-37.81734216666667,144.95066133333333,400.6,-37.818952333333336,144.95124833333333,271.4,-35.84156328,143.1362385,63.2729524,-35.96631476,143.3707744,64.82851725,-0.001194,0.009362,0.009641,4.866937,-7.45133,3.926351,0.200468,-0.170843,0.819829,0.508434,1616653372.9960911,-0.151242,0.471162,0.681704
1,-15556.3783936,-21538.3981435,308.262210189,0.537124160213,0.498768480917,1.62135849545,0.200468052997,-0.170843045165,0.819829216734,0.508434134412,[],[],[],-37.81734216666667,144.95066133333333,400.6,-37.818952333333336,144.95124833333333,271.4,-35.84156328,143.1362385,63.2729524,-35.96631476,143.3707744,64.82851725,-0.001194,0.009362,0.009641,4.866937,-7.45133,3.926351,0.200468,-0.170843,0.819829,0.508434,1616653373.0243042,-0.151242,0.471162,0.681704
1,-15556.3665769,-21538.3871706,308.297880076,0.644548992256,0.598522177101,1.94563019454,0.200468052997,-0.170843045165,0.819829216734,0.508434134412,[],[],[],-37.81734216666667,144.95066133333333,400.6,-37.818952333333336,144.95124833333333,271.4,-35.84156328,143.1362385,63.2729524,-35.96631476,143.3707744,64.82851725,-0.001194,0.009362,0.009641,4.866937,-7.45133,3.926351,0.200468,-0.170843,0.819829,0.508434,1616653373.0582669,-0.151242,0.471162,0.681704
1,-15556.3526111,-21538.3742069,308.340033481,0.752035883355,0.697844906438,2.26971034516,0.200508980469,-0.170991983344,0.819894920136,0.508261950492,[],[],[],-37.81734216666667,144.95066133333333,400.6,-37.818952333333336,144.95124833333333,271.4,-35.84156328,143.1362385,63.2729524,-35.96631476,143.3707744,64.82851725,0.006005,-0.0121,0.002317,4.842434,-7.446598,3.926969,0.200509,-0.170992,0.819895,0.508262,1616653373.0875874,-0.143411,0.478524,0.682476
1,-15556.3364955,-21538.3592568,308.38866849,0.859522774453,0.797167635776,2.59379049578,0.200508980469,-0.170991983344,0.819894920136,0.508261950492,[],[],[],-37.81734216666667,144.95066133333333,400.6,-37.818952333333336,144.95124833333333,271.4,-35.84156328,143.1362385,63.2729524,-35.96631476,143.3707744,64.82851725,0.006005,-0.0121,0.002317,4.842434,-7.446598,3.926969,0.200509,-0.170992,0.819895,0.508262,1616653373.1228275,-0.143411,0.478524,0.682476
1,-15556.3182302,-21538.3423202,308.443785101,0.967009665552,0.896490365114,2.91787064641,0.200508980469,-0.170991983344,0.819894920136,0.508261950492,[],[],[],-37.81734216666667,144.95066133333333,400.6,-37.818952333333336,144.95124833333333,271.4,-35.84156328,143.1362385,63.2729524,-35.96631476,143.3707744,64.82851725,0.006005,-0.0121,0.002317,4.842434,-7.446598,3.926969,0.200509,-0.170992,0.819895,0.508262,1616653373.1587834,-0.143411,0.478524,0.682476
1,-15556.2978151,-21538.3233972,308.505383316,1.07449655665,0.995813094452,3.24195079703,0.200508980469,-0.170991983344,0.819894920136,0.508261950492,[],[],[],-37.81734216666667,144.95066133333333,400.6,-37.818952333333336,144.95124833333333,271.4,-35.84156328,143.1362385,63.2729524,-35.96631476,143.3707744,64.82851725,0.006005,-0.0121,0.002317,4.842434,-7.446598,3.926969,0.200509,-0.170992,0.819895,0.508262,1616653373.1922743,-0.143411,0.478524,0.682476
1,-15556.2752503,-21538.3024877,308.573463133,1.18198344775,1.09513582379,3.56603094765,0.200508980469,-0.170991983344,0.819894920136,0.508261950492,[],[],[],-37.81734216666667,144.95066133333333,400.6,-37.818952333333336,144.95124833333333,271.4,-35.84156328,143.1362385,63.2729524,-35.96631476,143.3707744,64.82851725,0.006005,-0.0121,0.002317,4.842434,-7.446598,3.926969,0.200509,-0.170992,0.819895,0.508262,1616653373.2221088,-0.143411,0.478524,0.682476
1,-15556.2505358,-21538.2795917,308.648024553,1.28947033885,1.19445855313,3.89011109828,0.200508980469,-0.170991983344,0.819894920136,0.508261950492,[],[],[],-37.81734216666667,144.95066133333333,400.6,-37.818952333333336,144.95124833333333,271.4,-35.84156328,143.1362385,63.2729524,-35.96631476,143.3707744,64.82851725,0.006005,-0.0121,0.002317,4.842434,-7.446598,3.926969,0.200509,-0.170992,0.819895,0.508262,1616653373.2533727,-0.143411,0.478524,0.682476
1,-15556.2236748,-21538.2547064,308.729069024,1.39662531024,1.29407584486,4.21433593382,0.200406884091,-0.17092890114,0.819844525827,0.508404705954,[],[],[],-37.81734216666667,144.95066133333333,400.6,-37.818952333333336,144.95124833333333,271.4,-35.84156328,143.1362385,63.2729524,-35.96631476,143.3707744,64.82851725,-0.009193,-0.002079,-0.000922,4.865052,-7.437392,3.924204,0.200407,-0.170929,0.819845,0.508405,1616653373.286591,-0.143529,0.47603,0.682452
1,-15556.1946707,-21538.2278287,308.816597991,1.50378028164,1.39369313659,4.53856076937,0.200406884091,-0.17092890114,0.819844525827,0.508404705954,[],[],[],-37.81734216666667,144.95066133333333,400.6,-37.818952333333336,144.95124833333333,271.4,-35.84156328,143.1362385,63.2729524,-35.96631476,143.3707744,64.82851725,-0.009193,-0.002079,-0.000922,4.865052,-7.437392,3.924204,0.200407,-0.170929,0.819845,0.508405,1616653373.3142712,-0.143529,0.47603,0.682452
1,-15556.1635236,-21538.1989587,308.910611455,1.61093525303,1.49331042833,4.86278560492,0.200406884091,-0.17092890114,0.819844525827,0.508404705954,[],[],[],-37.81734216666667,144.95066133333333,400.6,-37.818952333333336,144.95124833333333,271.4,-35.84156328,143.1362385,63.2729524,-35.96631476,143.3707744,64.82851725,-0.009193,-0.002079,-0.000922,4.865052,-7.437392,3.924204,0.200407,-0.170929,0.819845,0.508405,1616653373.3418224,-0.143529,0.47603,0.682452
1,-15556.1302333,-21538.1680963,309.011109415,1.71809022442,1.59292772006,5.18701044047,0.200406884091,-0.17092890114,0.819844525827,0.508404705954,[],[],[],-37.81734216666667,144.95066133333333,400.6,-37.818952333333336,144.95124833333333,271.4,-35.84156328,143.1362385,63.2729524,-35.96631476,143.3707744,64.82851725,-0.009193,-0.002079,-0.000922,4.865052,-7.437392,3.924204,0.200407,-0.170929,0.819845,0.508405,1616653373.3692467,-0.143529,0.47603,0.682452
1,-15556.0948,-21538.1352416,309.118091872,1.82524519582,1.69254501179,5.51123527602,0.200406884091,-0.17092890114,0.819844525827,0.508404705954,[],[],[],-37.81734216666667,144.95066133333333,400.6,-37.818952333333336,144.95124833333333,271.4,-35.84156328,143.1362385,63.2729524,-35.96631476,143.3707744,64.82851725,-0.009193,-0.002079,-0.000922,4.865052,-7.437392,3.924204,0.200407,-0.170929,0.819845,0.508405,1616653373.397499,-0.143529,0.47603,0.682452
1,-15556.0572235,-21538.1003945,309.231558826,1.93240016721,1.79216230352,5.83546011157,0.200406884091,-0.17092890114,0.819844525827,0.508404705954,[],[],[],-37.81734216666667,144.95066133333333,400.6,-37.818952333333336,144.95124833333333,271.4,-35.84156328,143.1362385,63.2729524,-35.96631476,143.3707744,64.82851725,-0.009193,-0.002079,-0.000922,4.865052,-7.437392,3.924204,0.200407,-0.170929,0.819845,0.508405,1616653373.4253058,-0.143529,0.47603,0.682452
1,-15556.017504,-21538.0635551,309.351510277,2.0395551386,1.89177959526,6.15968494712,0.200406884091,-0.17092890114,0.819844525827,0.508404705954,[],[],[],-37.817345333333336,144.95063933333333,416.0,-37.818952333333336,144.95124833333333,271.4,-35.84156328,143.1362385,63.2729524,-35.96631476,143.3707744,64.82851725,-0.009193,-0.002079,-0.000922,4.865052,-7.437392,3.924204,0.200407,-0.170929,0.819845,0.508405,1616653373.4566157,-0.143529,0.47603,0.682452
1,-15555.9756403,-21538.0247203,309.477948801,2.14680916009,1.99169741099,6.48416751498,0.200584983854,-0.170950986239,0.819830934009,0.508348959081,[],[],[],-37.817345333333336,144.95063933333333,416.0,-37.818952333333336,144.95124833333333,271.4,-35.84156328,143.1362385,63.2729524,-35.96631476,143.3707744,64.82851725,-0.000586,-0.006378,-0.006598,4.88217,-7.448712,3.928352,0.200585,-0.170951,0.819831,0.508349,1616653373.4902008,-0.153893,0.476588,0.68892
1,-15555.9316316,-21537.9838872,309.610876977,2.25406318157,2.09161522672,6.80865008283,0.200584983854,-0.170950986239,0.819830934009,0.508348959081,[],[],[],-37.817345333333336,144.95063933333333,416.0,-37.818952333333336,144.95124833333333,271.4,-35.84156328,143.1362385,63.2729524,-35.96631476,143.3707744,64.82851725,-0.000586,-0.006378,-0.006598,4.88217,-7.448712,3.928352,0.200585,-0.170951,0.819831,0.508349,1616653373.520207,-0.153893,0.476588,0.68892
1,-15555.8854778,-21537.9410557,309.750294805,2.36131720305,2.19153304245,7.13313265069,0.200584983854,-0.170950986239,0.819830934009,0.508348959081,[],[],[],-37.817345333333336,144.95063933333333,416.0,-37.818952333333336,144.95124833333333,271.4,-35.84156328,143.1362385,63.2729524,-35.96631476,143.3707744,64.82851725,-0.000586,-0.006378,-0.006598,4.88217,-7.448712,3.928352,0.200585,-0.170951,0.819831,0.508349,1616653373.5507696,-0.153893,0.476588,0.68892
1,-15555.8371789,-21537.8962259,309.896202283,2.46857122453,2.29145085818,7.45761521854,0.200584983854,-0.170950986239,0.819830934009,0.508348959081,[],[],[],-37.817345333333336,144.95063933333333,416.0,-37.818952333333336,144.95124833333333,271.4,-35.84156328,143.1362385,63.2729524,-35.96631476,143.3707744,64.82851725,-0.000586,-0.006378,-0.006598,4.88217,-7.448712,3.928352,0.200585,-0.170951,0.819831,0.508349,1616653373.5791795,-0.153893,0.476588,0.68892
1,-15555.7867349,-21537.8493977,310.048599413,2.57582524601,2.39136867392,7.7820977864,0.200584983854,-0.170950986239,0.819830934009,0.508348959081,[],[],[],-37.817345333333336,144.95063933333333,416.0,-37.818952333333336,144.95124833333333,271.4,-35.84156328,143.1362385,63.2729524,-35.96631476,143.3707744,64.82851725,-0.000586,-0.006378,-0.006598,4.88217,-7.448712,3.928352,0.200585,-0.170951,0.819831,0.508349,1616653373.6084983,-0.153893,0.476588,0.68892
1,-15555.7341459,-21537.8005711,310.207486195,2.6830792675,2.49128648965,8.10658035425,0.200584983854,-0.170950986239,0.819830934009,0.508348959081,[],[],[],-37.817345333333336,144.95063933333333,416.0,-37.818952333333336,144.95124833333333,271.4,-35.84156328,143.1362385,63.2729524,-35.96631476,143.3707744,64.82851725,-0.000586,-0.006378,-0.006598,4.88217,-7.448712,3.928352,0.200585,-0.170951,0.819831,0.508349,1616653373.6414611,-0.153893,0.476588,0.68892
1,-15555.6794118,-21537.7497462,310.372862627,2.79033328898,2.59120430538,8.43106292211,0.200584983854,-0.170950986239,0.819830934009,0.508348959081,[],[],[],-37.817345333333336,144.95063933333333,416.0,-37.818952333333336,144.95124833333333,271.4,-35.84156328,143.1362385,63.2729524,-35.96631476,143.3707744,64.82851725,-0.000586,-0.006378,-0.006598,4.88217,-7.448712,3.928352,0.200585,-0.170951,0.819831,0.508349,1616653373.6746871,-0.153893,0.476588,0.68892
1,-15555.6225333,-21537.6969188,310.544722671,2.89751421744,2.69153296117,8.75494143202,0.200541043121,-0.171063036782,0.819885176293,0.508241109283,[],[],[],-37.817345333333336,144.95063933333333,416.0,-37.818952333333336,144.95124833333333,271.4,-35.84156328,143.1362385,63.2729524,-35.96631476,143.3707744,64.82851725,-0.010931,0.012258,-0.00775,4.882218,-7.453907,3.890311,0.200541,-0.171063,0.819885,0.508241,1616653373.7060678,-0.15111,0.47103,0.679236
1,-15555.5635112,-21537.6420849,310.723060285,3.0046951459,2.79186161696,9.07881994193,0.200541043121,-0.171063036782,0.819885176293,0.508241109283,[],[],[],-37.817345333333336,144.95063933333333,416.0,-37.818952333333336,144.95124833333333,271.4,-35.84156328,143.1362385,63.2729524,-35.96631476,143.3707744,64.82851725,-0.010931,0.012258,-0.00775,4.882218,-7.453907,3.890311,0.200541,-0.171063,0.819885,0.508241,1616653373.733974,-0.15111,0.47103,0.679236
1,-15555.5023455,-21537.5852444,310.907875469,3.11187607437,2.89219027275,9.40269845184,0.200541043121,-0.171063036782,0.819885176293,0.508241109283,[],[],[],-37.817345333333336,144.95063933333333,416.0,-37.818952333333336,144.95124833333333,271.4,-35.84156328,143.1362385,63.2729524,-35.96631476,143.3707744,64.82851725,-0.010931,0.012258,-0.00775,4.882218,-7.453907,3.890311,0.200541,-0.171063,0.819885,0.508241,1616653373.7661102,-0.15111,0.47103,0.679236
1,-15555.4390362,-21537.5263973,311.099168223,3.21905700283,2.99251892854,9.72657696175,0.200541043121,-0.171063036782,0.819885176293,0.508241109283,[],[],[],-37.817345333333336,144.95063933333333,416.0,-37.818952333333336,144.95124833333333,271.4,-35.84156328,143.1362385,63.2729524,-35.96631476,143.3707744,64.82851725,-0.010931,0.012258,-0.00775,4.882218,-7.453907,3.890311,0.200541,-0.171063,0.819885,0.508241,1616653373.7964697,-0.15111,0.47103,0.679236
1,-15555.3735832,-21537.4655436,311.296938547,3.3262379313,3.09284758433,10.0504554717,0.200541043121,-0.171063036782,0.819885176293,0.508241109283,[],[],[],-37.817345333333336,144.95063933333333,416.0,-37.818952333333336,144.95124833333333,271.4,-35.84156328,143.1362385,63.2729524,-35.96631476,143.3707744,64.82851725,-0.010931,0.012258,-0.00775,4.882218,-7.453907,3.890311,0.200541,-0.171063,0.819885,0.508241,1616653373.827143,-0.15111,0.47103,0.679236
1,-15555.3059866,-21537.4026834,311.501186442,3.43341885976,3.19317624012,10.3743339816,0.200541043121,-0.171063036782,0.819885176293,0.508241109283,[],[],[],-37.817345333333336,144.95063933333333,416.0,-37.818952333333336,144.95124833333333,271.4,-35.84156328,143.1362385,63.2729524,-35.96631476,143.3707744,64.82851725,-0.010931,0.012258,-0.00775,4.882218,-7.453907,3.890311,0.200541,-0.171063,0.819885,0.508241,1616653373.8619013,-0.15111,0.47103,0.679236
1,-15555.2362379,-21537.3378191,311.711920655,3.54145892022,3.29325212413,10.6990873669,0.200637887608,-0.171043904186,0.819841540748,0.508279715276,[],[],[],-37.817345333333336,144.95063933333333,416.0,-37.818952333333336,144.95124833333333,271.4,-35.84156328,143.1362385,63.2729524,-35.96631476,143.3707744,64.82851725,0.014944,-0.000857,-0.005808,4.878912,-7.489522,3.940798,0.200638,-0.171044,0.819842,0.50828,1616653373.8922508,-0.14167,0.471398,0.690044
1,-15555.1643283,-21537.2709533,311.929149936,3.64949898069,3.39332800814,11.0238407522,0.200637887608,-0.171043904186,0.819841540748,0.508279715276,[],[],[],-37.817345333333336,144.95063933333333,416.0,-37.818952333333336,144.95124833333333,271.4,-35.84156328,143.1362385,63.2729524,-35.96631476,143.3707744,64.82851725,0.014944,-0.000857,-0.005808,4.878912,-7.489522,3.940798,0.200638,-0.171044,0.819842,0.50828,1616653373.920943,-0.14167,0.471398,0.690044
1,-15555.0902579,-21537.202086,312.152874285,3.75753904115,3.49340389215,11.3485941375,0.200637887608,-0.171043904186,0.819841540748,0.508279715276,[],[],[],-37.817345333333336,144.95063933333333,416.0,-37.818952333333336,144.95124833333333,271.4,-35.84156328,143.1362385,63.2729524,-35.96631476,143.3707744,64.82851725,0.014944,-0.000857,-0.005808,4.878912,-7.489522,3.940798,0.200638,-0.171044,0.819842,0.50828,1616653373.9520075,-0.14167,0.471398,0.690044
1,-15555.0140267,-21537.1312171,312.383093702,3.86557910161,3.59347977616,11.6733475228,0.200637887608,-0.171043904186,0.819841540748,0.508279715276,[],[],[],-37.817345333333336,144.95063933333333,416.0,-37.818952333333336,144.95124833333333,271.4,-35.84156328,143.1362385,63.2729524,-35.96631476,143.3707744,64.82851725,0.014944,-0.000857,-0.005808,4.878912,-7.489522,3.940798,0.200638,-0.171044,0.819842,0.50828,1616653373.9816594,-0.14167,0.471398,0.690044
1,-15554.9356347,-21537.0583468,312.619808186,3.97361916208,3.69355566017,11.9981009081,0.200637887608,-0.171043904186,0.819841540748,0.508279715276,[],[],[],-37.817345333333336,144.95063933333333,416.0,-37.81895316666667,144.95124383333334,272.6,-35.84156328,143.1362385,63.2729524,-35.96631476,143.3707744,64.82851725,0.014944,-0.000857,-0.005808,4.878912,-7.489522,3.940798,0.200638,-0.171044,0.819842,0.50828,1616653374.009208,-0.14167,0.471398,0.690044
1,-15554.855082,-21536.9834749,312.863017738,4.08165922254,3.79363154417,12.3228542935,0.200637887608,-0.171043904186,0.819841540748,0.508279715276,[],[],[],-37.817345333333336,144.95063933333333,416.0,-37.81895316666667,144.95124383333334,272.6,-35.84156328,143.1362385,63.2729524,-35.96631476,143.3707744,64.82851725,0.014944,-0.000857,-0.005808,4.878912,-7.489522,3.940798,0.200638,-0.171044,0.819842,0.50828,1616653374.038396,-0.14167,0.471398,0.690044
1,-15554.7723684,-21536.9066015,313.112722358,4.189699283,3.89370742818,12.6476076788,0.200637887608,-0.171043904186,0.819841540748,0.508279715276,[],[],[],-37.817345333333336,144.95063933333333,416.0,-37.81895316666667,144.95124383333334,272.6,-35.84156328,143.1362385,63.2729524,-35.96631476,143.3707744,64.82851725,0.014944,-0.000857,-0.005808,4.878912,-7.489522,3.940798,0.200638,-0.171044,0.819842,0.50828,1616653374.0660384,-0.14167,0.471398,0.690044
1,-15554.6875047,-21536.8277317,313.368917454,4.29667139576,3.99327316877,12.9719019276,0.2005959599,-0.170907965835,0.819762836125,0.508468898355,[],[],[],-37.817345333333336,144.95063933333333,416.0,-37.81895316666667,144.95124383333334,272.6,-35.84156328,143.1362385,63.2729524,-35.96631476,143.3707744,64.82851725,-0.012378,0.000855,-0.007123,4.871623,-7.426363,3.926851,0.200596,-0.170908,0.819763,0.508469,1616653374.0998778,-0.149381,0.471808,0.691927
1,-15554.6005015,-21536.7468706,313.631598435,4.40364350852,4.09283890935,13.2961961763,0.2005959599,-0.170907965835,0.819762836125,0.508468898355,[],[],[],-37.817345333333336,144.95063933333333,416.0,-37.81895316666667,144.95124383333334,272.6,-35.84156328,143.1362385,63.2729524,-35.96631476,143.3707744,64.82851725,-0.012378,0.000855,-0.007123,4.871623,-7.426363,3.926851,0.200596,-0.170908,0.819763,0.508469,1616653374.1315503,-0.149381,0.471808,0.691927
1,-15554.5113589,-21536.6640181,313.900765301,4.51061562128,4.19240464993,13.6204904251,0.2005959599,-0.170907965835,0.819762836125,0.508468898355,[],[],[],-37.817345333333336,144.95063933333333,416.0,-37.81895316666667,144.95124383333334,272.6,-35.84156328,143.1362385,63.2729524,-35.96631476,143.3707744,64.82851725,-0.012378,0.000855,-0.007123,4.871623,-7.426363,3.926851,0.200596,-0.170908,0.819763,0.508469,1616653374.1589525,-0.149381,0.471808,0.691927
1,-15554.4200769,-21536.5791744,314.176418052,4.61758773404,4.29197039052,13.9447846739,0.2005959599,-0.170907965835,0.819762836125,0.508468898355,[],[],[],-37.817345333333336,144.95063933333333,416.0,-37.81895316666667,144.95124383333334,272.6,-35.84156328,143.1362385,63.2729524,-35.96631476,143.3707744,64.82851725,-0.012378,0.000855,-0.007123,4.871623,-7.426363,3.926851,0.200596,-0.170908,0.819763,0.508469,1616653374.187511,-0.149381,0.471808,0.691927
1,-15554.3266554,-21536.4923393,314.458556688,4.7245598468,4.3915361311,14.2690789227,0.2005959599,-0.170907965835,0.819762836125,0.508468898355,[],[],[],-37.817345333333336,144.95063933333333,416.0,-37.81895316666667,144.95124383333334,272.6,-35.84156328,143.1362385,63.2729524,-35.96631476,143.3707744,64.82851725,-0.012378,0.000855,-0.007123,4.871623,-7.426363,3.926851,0.200596,-0.170908,0.819763,0.508469,1616653374.2152586,-0.149381,0.471808,0.691927
1,-15554.2310945,-21536.403513,314.747181209,4.83153195956,4.49110187168,14.5933731715,0.2005959599,-0.170907965835,0.819762836125,0.508468898355,[],[],[],-37.817345333333336,144.95063933333333,416.0,-37.81895316666667,144.95124383333334,272.6,-35.84156328,143.1362385,63.2729524,-35.96631476,143.3707744,64.82851725,-0.012378,0.000855,-0.007123,4.871623,-7.426363,3.926851,0.200596,-0.170908,0.819763,0.508469,1616653374.2428613,-0.149381,0.471808,0.691927
1,-15554.1333941,-21536.3126953,315.042291615,4.93850407232,4.59066761227,14.9176674203,0.2005959599,-0.170907965835,0.819762836125,0.508468898355,[],[],[],-37.817345333333336,144.95063933333333,416.0,-37.81895316666667,144.95124383333334,272.6,-35.84156328,143.1362385,63.2729524,-35.96631476,143.3707744,64.82851725,-0.012378,0.000855,-0.007123,4.871623,-7.426363,3.926851,0.200596,-0.170908,0.819763,0.508469,1616653374.270705,-0.149381,0.471808,0.691927
1,-15554.0335537,-21536.2198858,315.343891106,5.04553990026,4.69027917624,15.2422816785,0.200495059916,-0.170916051076,0.819809244991,0.508431151939,[],[],[],-37.817345333333336,144.95063933333333,416.0,-37.81895316666667,144.95124383333334,272.6,-35.84156328,143.1362385,63.2729524,-35.96631476,143.3707744,64.82851725,0.011079,-0.002068,-0.002252,4.878404,-7.43248,3.940178,0.200495,-0.170916,0.819809,0.508431,1616653374.2984815,-0.15422,0.469129,0.686499
1,-15553.9315725,-21536.1250841,315.651982882,5.15257572819,4.78989074021,15.5668959367,0.200495059916,-0.170916051076,0.819809244991,0.508431151939,[],[],[],-37.817345333333336,144.95063933333333,416.0,-37.81895316666667,144.95124383333334,272.6,-35.84156328,143.1362385,63.2729524,-35.96631476,143.3707744,64.82851725,0.011079,-0.002068,-0.002252,4.878404,-7.43248,3.940178,0.200495,-0.170916,0.819809,0.508431,1616653374.3260355,-0.15422,0.469129,0.686499
1,-15553.8274507,-21536.0282902,315.966566943,5.25961155613,4.88950230418,15.8915101949,0.200495059916,-0.170916051076,0.819809244991,0.508431151939,[],[],[],-37.817345333333336,144.95063933333333,416.0,-37.81895316666667,144.95124383333334,272.6,-35.84156328,143.1362385,63.2729524,-35.96631476,143.3707744,64.82851725,0.011079,-0.002068,-0.002252,4.878404,-7.43248,3.940178,0.200495,-0.170916,0.819809,0.508431,1616653374.356173,-0.15422,0.469129,0.686499
1,-15553.7211881,-21535.929504,316.28764329,5.36664738407,4.98911386815,16.2161244531,0.200495059916,-0.170916051076,0.819809244991,0.508431151939,[],[],[],-37.817345333333336,144.95063933333333,416.0,-37.81895316666667,144.95124383333334,272.6,-35.84156328,143.1362385,63.2729524,-35.96631476,143.3707744,64.82851725,0.011079,-0.002068,-0.002252,4.878404,-7.43248,3.940178,0.200495,-0.170916,0.819809,0.508431,1616653374.38551,-0.15422,0.469129,0.686499
1,-15553.6127848,-21535.8287256,316.615211921,5.473683212,5.08872543212,16.5407387113,0.200495059916,-0.170916051076,0.819809244991,0.508431151939,[],[],[],-37.817345,144.9506185,429.1,-37.81895316666667,144.95124383333334,272.6,-35.84156328,143.1362385,63.2729524,-35.96631476,143.3707744,64.82851725,0.011079,-0.002068,-0.002252,4.878404,-7.43248,3.940178,0.200495,-0.170916,0.819809,0.508431,1616653374.4140673,-0.15422,0.469129,0.686499
1,-15553.5022408,-21535.725955,316.949272838,5.58071903994,5.18833699609,16.8653529696,0.200495059916,-0.170916051076,0.819809244991,0.508431151939,[],[],[],-37.817345,144.9506185,429.1,-37.81895316666667,144.95124383333334,272.6,-35.84156328,143.1362385,63.2729524,-35.96631476,143.3707744,64.82851725,0.011079,-0.002068,-0.002252,4.878404,-7.43248,3.940178,0.200495,-0.170916,0.819809,0.508431,1616653374.4425204,-0.15422,0.469129,0.686499
1,-15553.389556,-21535.6211921,317.28982604,5.68775486787,5.28794856006,17.1899672278,0.200495059916,-0.170916051076,0.819809244991,0.508431151939,[],[],[],-37.817345,144.9506185,429.1,-37.81895316666667,144.95124383333334,272.6,-35.84156328,143.1362385,63.2729524,-35.96631476,143.3707744,64.82851725,0.011079,-0.002068,-0.002252,4.878404,-7.43248,3.940178,0.200495,-0.170916,0.819809,0.508431,1616653374.4706829,-0.15422,0.469129,0.686499
1,-15553.2747235,-21535.5144319,317.636868734,5.79549462126,5.38807665533,17.5143021776,0.200469947803,-0.171127955443,0.819747786559,0.508468867608,[],[],[],-37.817345,144.9506185,429.1,-37.81895316666667,144.95124383333334,272.6,-35.84156328,143.1362385,63.2729524,-35.96631476,143.3707744,64.82851725,-0.009902,-0.01007,-0.007433,4.877935,-7.475585,3.917136,0.20047,-0.171128,0.819748,0.508469,1616653374.4985185,-0.144368,0.466472,0.687413
1,-15553.1577362,-21535.4056691,317.990398127,5.90323437464,5.48820475061,17.8386371273,0.200469947803,-0.171127955443,0.819747786559,0.508468867608,[],[],[],-37.817345,144.9506185,429.1,-37.81895316666667,144.95124383333334,272.6,-35.84156328,143.1362385,63.2729524,-35.96631476,143.3707744,64.82851725,-0.009902,-0.01007,-0.007433,4.877935,-7.475585,3.917136,0.20047,-0.171128,0.819748,0.508469,1616653374.5263088,-0.144368,0.466472,0.687413
1,-15553.0385941,-21535.2949037,318.350414219,6.01097412803,5.58833284589,18.1629720771,0.200469947803,-0.171127955443,0.819747786559,0.508468867608,[],[],[],-37.817345,144.9506185,429.1,-37.81895316666667,144.95124383333334,272.6,-35.84156328,143.1362385,63.2729524,-35.96631476,143.3707744,64.82851725,-0.009902,-0.01007,-0.007433,4.877935,-7.475585,3.917136,0.20047,-0.171128,0.819748,0.508469,1616653374.555382,-0.144368,0.466472,0.687413
1,-15552.9172973,-21535.1821357,318.71691701,6.11871388141,5.68846094117,18.4873070269,0.200469947803,-0.171127955443,0.819747786559,0.508468867608,[],[],[],-37.817345,144.9506185,429.1,-37.81895316666667,144.95124383333334,272.6,-35.84156328,143.1362385,63.2729524,-35.96631476,143.3707744,64.82851725,-0.009902,-0.01007,-0.007433,4.877935,-7.475585,3.917136,0.20047,-0.171128,0.819748,0.508469,1616653374.5828586,-0.144368,0.466472,0.687413
1,-15552.7938456,-21535.0673652,319.0899065,6.2264536348,5.78858903644,18.8116419767,0.200469947803,-0.171127955443,0.819747786559,0.508468867608,[],[],[],-37.817345,144.9506185,429.1,-37.81895316666667,144.95124383333334,272.6,-35.84156328,143.1362385,63.2729524,-35.96631476,143.3707744,64.82851725,-0.009902,-0.01007,-0.007433,4.877935,-7.475585,3.917136,0.20047,-0.171128,0.819748,0.508469,1616653374.6137593,-0.144368,0.466472,0.687413
1,-15552.6682391,-21534.9505922,319.469382689,6.33419338818,5.88871713172,19.1359769265,0.200469947803,-0.171127955443,0.819747786559,0.508468867608,[],[],[],-37.817345,144.9506185,429.1,-37.81895316666667,144.95124383333334,272.6,-35.84156328,143.1362385,63.2729524,-35.96631476,143.3707744,64.82851725,-0.009902,-0.01007,-0.007433,4.877935,-7.475585,3.917136,0.20047,-0.171128,0.819748,0.508469,1616653374.6449063,-0.144368,0.466472,0.687413
1,-15552.5404779,-21534.8318166,319.855345577,6.44193314157,5.988845227,19.4603118762,0.200469947803,-0.171127955443,0.819747786559,0.508468867608,[],[],[],-37.817345,144.9506185,429.1,-37.81895316666667,144.95124383333334,272.6,-35.84156328,143.1362385,63.2729524,-35.96631476,143.3707744,64.82851725,-0.009902,-0.01007,-0.007433,4.877935,-7.475585,3.917136,0.20047,-0.171128,0.819748,0.508469,1616653374.6763396,-0.144368,0.466472,0.687413
1,-15552.4105665,-21534.7110378,320.247805754,6.54919857388,6.08903551303,19.7857057891,0.200590034698,-0.171256029624,0.81962514178,0.508576087974,[],[],[],-37.817345,144.9506185,429.1,-37.81895316666667,144.95124383333334,272.6,-35.84156328,143.1362385,63.2729524,-35.96631476,143.3707744,64.82851725,-0.009106,0.001065,0.007217,4.919986,-7.458824,3.954594,0.20059,-0.171256,0.819625,0.508576,1616653374.7041824,-0.144145,0.474089,0.68995
1,-15552.2785099,-21534.5882551,320.646773809,6.65646400619,6.18922579906,20.1110997019,0.200590034698,-0.171256029624,0.81962514178,0.508576087974,[],[],[],-37.817345,144.9506185,429.1,-37.81895316666667,144.95124383333334,272.6,-35.84156328,143.1362385,63.2729524,-35.96631476,143.3707744,64.82851725,-0.009106,0.001065,0.007217,4.919986,-7.458824,3.954594,0.20059,-0.171256,0.819625,0.508576,1616653374.7320843,-0.144145,0.474089,0.68995
1,-15552.144308,-21534.4634687,321.052249742,6.7637294385,6.28941608509,20.4364936147,0.200590034698,-0.171256029624,0.81962514178,0.508576087974,[],[],[],-37.817345,144.9506185,429.1,-37.81895316666667,144.95124383333334,272.6,-35.84156328,143.1362385,63.2729524,-35.96631476,143.3707744,64.82851725,-0.009106,0.001065,0.007217,4.919986,-7.458824,3.954594,0.20059,-0.171256,0.819625,0.508576,1616653374.7605913,-0.144145,0.474089,0.68995
1,-15552.0079607,-21534.3366785,321.464233554,6.87099487081,6.38960637112,20.7618875275,0.200590034698,-0.171256029624,0.81962514178,0.508576087974,[],[],[],-37.817345,144.9506185,429.1,-37.81895316666667,144.95124383333334,272.6,-35.84156328,143.1362385,63.2729524,-35.96631476,143.3707744,64.82851725,-0.009106,0.001065,0.007217,4.919986,-7.458824,3.954594,0.20059,-0.171256,0.819625,0.508576,1616653374.7940898,-0.144145,0.474089,0.68995
1,-15551.8694682,-21534.2078845,321.882725243,6.97826030313,6.48979665715,21.0872814403,0.200590034698,-0.171256029624,0.81962514178,0.508576087974,[],[],[],-37.817345,144.9506185,429.1,-37.81895316666667,144.95124383333334,272.6,-35.84156328,143.1362385,63.2729524,-35.96631476,143.3707744,64.82851725,-0.009106,0.001065,0.007217,4.919986,-7.458824,3.954594,0.20059,-0.171256,0.819625,0.508576,1616653374.825233,-0.144145,0.474089,0.68995
1,-15551.7288303,-21534.0770866,322.307724811,7.08552573544,6.58998694318,21.4126753532,0.200590034698,-0.171256029624,0.81962514178,0.508576087974,[],[],[],-37.817345,144.9506185,429.1,-37.81895316666667,144.95124383333334,272.6,-35.84156328,143.1362385,63.2729524,-35.96631476,143.3707744,64.82851725,-0.009106,0.001065,0.007217,4.919986,-7.458824,3.954594,0.20059,-0.171256,0.819625,0.508576,1616653374.8581681,-0.144145,0.474089,0.68995
1,-15551.5860464,-21533.9442883,322.739231781,7.19286841208,6.68984860644,21.7380216118,0.200547045053,-0.171310038485,0.819631184132,0.50856511425,[],[],[],-37.817345,144.9506185,429.1,-37.81895316666667,144.95124383333334,272.6,-35.84156328,143.1362385,63.2729524,-35.96631476,143.3707744,64.82851725,0.00131,0.000711,-0.008349,4.904157,-7.455954,3.960237,0.200547,-0.17131,0.819631,0.508565,1616653374.8904464,-0.143894,0.476452,0.687505
1,-15551.4411156,-21533.8094927,323.177245676,7.30021108871,6.7897102697,22.0633678704,0.200547045053,-0.171310038485,0.819631184132,0.50856511425,[],[],[],-37.817345,144.9506185,429.1,-37.81895316666667,144.95124383333334,272.6,-35.84156328,143.1362385,63.2729524,-35.96631476,143.3707744,64.82851725,0.00131,0.000711,-0.008349,4.904157,-7.455954,3.960237,0.200547,-0.17131,0.819631,0.508565,1616653374.9201667,-0.143894,0.476452,0.687505
1,-15551.2940379,-21533.6726999,323.621766496,7.40755376535,6.88957193296,22.388714129,0.200547045053,-0.171310038485,0.819631184132,0.50856511425,[],[],[],-37.817345,144.9506185,429.1,-37.81895316666667,144.95124383333334,272.6,-35.84156328,143.1362385,63.2729524,-35.96631476,143.3707744,64.82851725,0.00131,0.000711,-0.008349,4.904157,-7.455954,3.960237,0.200547,-0.17131,0.819631,0.508565,1616653374.9493642,-0.143894,0.476452,0.687505
1,-15551.1448134,-21533.5339098,324.072794241,7.51489644199,6.98943359621,22.7140603876,0.200547045053,-0.171310038485,0.819631184132,0.50856511425,[],[],[],-37.817345,144.9506185,429.1,-37.81895316666667,144.95124383333334,272.6,-35.84156328,143.1362385,63.2729524,-35.96631476,143.3707744,64.82851725,0.00131,0.000711,-0.008349,4.904157,-7.455954,3.960237,0.200547,-0.17131,0.819631,0.508565,1616653374.978316,-0.143894,0.476452,0.687505
1,-15550.9934421,-21533.3931225,324.530328911,7.62223911863,7.08929525947,23.0394066462,0.200547045053,-0.171310038485,0.819631184132,0.50856511425,[],[],[],-37.817345,144.9506185,429.1,-37.81895316666667,144.95124383333334,272.6,-35.84156328,143.1362385,63.2729524,-35.96631476,143.3707744,64.82851725,0.00131,0.000711,-0.008349,4.904157,-7.455954,3.960237,0.200547,-0.17131,0.819631,0.508565,1616653375.0059915,-0.143894,0.476452,0.687505
1,-15550.8399239,-21533.250338,324.994370507,7.72958179527,7.18915692273,23.3647529048,0.200547045053,-0.171310038485,0.819631184132,0.50856511425,[],[],[],-37.817345,144.9506185,429.1,-37.81895316666667,144.95124383333334,272.6,-35.84156328,143.1362385,63.2729524,-35.96631476,143.3707744,64.82851725,0.00131,0.000711,-0.008349,4.904157,-7.455954,3.960237,0.200547,-0.17131,0.819631,0.508565,1616653375.0354323,-0.143894,0.476452,0.687505
1,-15550.6842588,-21533.1055562,325.464919027,7.8369244719,7.28901858598,23.6900991634,0.200547045053,-0.171310038485,0.819631184132,0.50856511425,[],[],[],-37.817345,144.9506185,429.1,-37.81895316666667,144.95124383333334,272.6,-35.84156328,143.1362385,63.2729524,-35.96631476,143.3707744,64.82851725,0.00131,0.000711,-0.008349,4.904157,-7.455954,3.960237,0.200547,-0.17131,0.819631,0.508565,1616653375.0717013,-0.143894,0.476452,0.687505
1,-15550.5264473,-21532.9587774,325.94197164,7.94422278596,7.38886630426,24.0151621162,0.200573024281,-0.171262020733,0.819641099226,0.508555061566,[],[],[],-37.817345,144.9506185,429.1,-37.81895316666667,144.95124383333334,272.6,-35.84156328,143.1362385,63.2729524,-35.96631476,143.3707744,64.82851725,0.009514,-0.00027,0.00836,4.897376,-7.452116,3.94891,0.200573,-0.171262,0.819641,0.508555,1616653375.1062007,-0.148882,0.471254,0.684406
1,-15550.3664899,-21532.8100016,326.425525512,8.05152110002,7.48871402253,24.3402250689,0.200573024281,-0.171262020733,0.819641099226,0.508555061566,[],[],[],-37.817345,144.9506185,429.1,-37.818954166666664,144.95123916666665,273.8,-35.84156328,143.1362385,63.2729524,-35.96631476,143.3707744,64.82851725,0.009514,-0.00027,0.00836,4.897376,-7.452116,3.94891,0.200573,-0.171262,0.819641,0.508555,1616653375.137454,-0.148882,0.471254,0.684406
1,-15550.2043865,-21532.6592288,326.915580643,8.15881941408,7.5885617408,24.6652880216,0.200573024281,-0.171262020733,0.819641099226,0.508555061566,[],[],[],-37.817345,144.9506185,429.1,-37.818954166666664,144.95123916666665,273.8,-35.84156328,143.1362385,63.2729524,-35.96631476,143.3707744,64.82851725,0.009514,-0.00027,0.00836,4.897376,-7.452116,3.94891,0.200573,-0.171262,0.819641,0.508555,1616653375.170096,-0.148882,0.471254,0.684406
1,-15550.0401371,-21532.5064591,327.412137033,8.26611772814,7.68840945907,24.9903509743,0.200573024281,-0.171262020733,0.819641099226,0.508555061566,[],[],[],-37.817345,144.9506185,429.1,-37.818954166666664,144.95123916666665,273.8,-35.84156328,143.1362385,63.2729524,-35.96631476,143.3707744,64.82851725,0.009514,-0.00027,0.00836,4.897376,-7.452116,3.94891,0.200573,-0.171262,0.819641,0.508555,1616653375.200515,-0.148882,0.471254,0.684406
1,-15549.8737418,-21532.3516925,327.915194682,8.3734160422,7.78825717735,25.3154139271,0.200573024281,-0.171262020733,0.819641099226,0.508555061566,[],[],[],-37.817345,144.9506185,429.1,-37.818954166666664,144.95123916666665,273.8,-35.84156328,143.1362385,63.2729524,-35.96631476,143.3707744,64.82851725,0.009514,-0.00027,0.00836,4.897376,-7.452116,3.94891,0.200573,-0.171262,0.819641,0.508555,1616653375.232706,-0.148882,0.471254,0.684406
1,-15549.7052005,-21532.1949288,328.42475359,8.48071435626,7.88810489562,25.6404768798,0.200573024281,-0.171262020733,0.819641099226,0.508555061566,[],[],[],-37.817345,144.9506185,429.1,-37.818954166666664,144.95123916666665,273.8,-35.84156328,143.1362385,63.2729524,-35.96631476,143.3707744,64.82851725,0.009514,-0.00027,0.00836,4.897376,-7.452116,3.94891,0.200573,-0.171262,0.819641,0.508555,1616653375.2673213,-0.148882,0.471254,0.684406
1,-15549.5345157,-21532.0361683,328.940812016,8.58776301167,7.98794470095,25.9653657029,0.20061387365,-0.171222892161,0.819626483787,0.508575679692,[],[],[],-37.817345,144.9506185,429.1,-37.818954166666664,144.95123916666665,273.8,-35.84156328,143.1362385,63.2729524,-35.96631476,143.3707744,64.82851725,-0.005233,-0.018796,0.00639,4.898401,-7.439268,3.940237,0.200614,-0.171223,0.819627,0.508576,1616653375.2988725,-0.144754,0.458966,0.689694
1,-15549.36169,-21531.875411,329.463368218,8.69481166708,8.08778450629,26.2902545261,0.20061387365,-0.171222892161,0.819626483787,0.508575679692,[],[],[],-37.817345,144.9506185,429.1,-37.818954166666664,144.95123916666665,273.8,-35.84156328,143.1362385,63.2729524,-35.96631476,143.3707744,64.82851725,-0.005233,-0.018796,0.00639,4.898401,-7.439268,3.940237,0.200614,-0.171223,0.819627,0.508576,1616653375.3285968,-0.144754,0.458966,0.689694
1,-15549.1867232,-21531.712657,329.992422197,8.80186032248,8.18762431162,26.6151433493,0.20061387365,-0.171222892161,0.819626483787,0.508575679692,[],[],[],-37.817345,144.9506185,429.1,-37.818954166666664,144.95123916666665,273.8,-35.84156328,143.1362385,63.2729524,-35.96631476,143.3707744,64.82851725,-0.005233,-0.018796,0.00639,4.898401,-7.439268,3.940237,0.200614,-0.171223,0.819627,0.508576,1616653375.3610547,-0.144754,0.458966,0.689694
1,-15549.0096155,-21531.5479061,330.527973952,8.90890897789,8.28746411696,26.9400321724,0.20061387365,-0.171222892161,0.819626483787,0.508575679692,[],[],[],-37.817345,144.9506185,429.1,-37.818954166666664,144.95123916666665,273.8,-35.84156328,143.1362385,63.2729524,-35.96631476,143.3707744,64.82851725,-0.005233,-0.018796,0.00639,4.898401,-7.439268,3.940237,0.200614,-0.171223,0.819627,0.508576,1616653375.3965328,-0.144754,0.458966,0.689694
1,-15548.8303669,-21531.3811584,331.070023484,9.01595763329,8.38730392229,27.2649209956,0.20061387365,-0.171222892161,0.819626483787,0.508575679692,[],[],[],-37.817345,144.9506185,429.1,-37.818954166666664,144.95123916666665,273.8,-35.84156328,143.1362385,63.2729524,-35.96631476,143.3707744,64.82851725,-0.005233,-0.018796,0.00639,4.898401,-7.439268,3.940237,0.200614,-0.171223,0.819627,0.508576,1616653375.4254553,-0.144754,0.458966,0.689694
1,-15548.6489772,-21531.2124139,331.618570792,9.1230062887,8.48714372763,27.5898098187,0.20061387365,-0.171222892161,0.819626483787,0.508575679692,[],[],[],-37.817345,144.9506185,429.1,-37.818954166666664,144.95123916666665,273.8,-35.84156328,143.1362385,63.2729524,-35.96631476,143.3707744,64.82851725,-0.005233,-0.018796,0.00639,4.898401,-7.439268,3.940237,0.200614,-0.171223,0.819627,0.508576,1616653375.4560373,-0.144754,0.458966,0.689694
1,-15548.4654466,-21531.0416726,332.173615877,9.23005494411,8.58698353296,27.9146986419,0.20061387365,-0.171222892161,0.819626483787,0.508575679692,[],[],[],-37.8173445,144.950598,442.3,-37.818954166666664,144.95123916666665,273.8,-35.84156328,143.1362385,63.2729524,-35.96631476,143.3707744,64.82851725,-0.005233,-0.018796,0.00639,4.898401,-7.439268,3.940237,0.200614,-0.171223,0.819627,0.508576,1616653375.483497,-0.144754,0.458966,0.689694
1,-15548.2797734,-21530.8689323,332.735155015,9.33727000443,8.68705373759,28.2392152094,0.200553056751,-0.171059048405,0.819631231931,0.508647143932,[],[],[],-37.8173445,144.950598,442.3,-37.818954166666664,144.95123916666665,273.8,-35.84156328,143.1362385,63.2729524,-35.96631476,143.3707744,64.82851725,0.003368,0.018172,0.005005,4.894528,-7.448761,3.922688,0.200553,-0.171059,0.819631,0.508647,1616653375.5159655,-0.152203,0.453835,0.68401
1,-15548.0919558,-21530.6941905,333.303184485,9.44448506475,8.78712394221,28.5637317769,0.200553056751,-0.171059048405,0.819631231931,0.508647143932,[],[],[],-37.8173445,144.950598,442.3,-37.818954166666664,144.95123916666665,273.8,-35.84156328,143.1362385,63.2729524,-35.96631476,143.3707744,64.82851725,0.003368,0.018172,0.005005,4.894528,-7.448761,3.922688,0.200553,-0.171059,0.819631,0.508647,1616653375.5441337,-0.152203,0.453835,0.68401
1,-15547.901994,-21530.5174473,333.877704286,9.55170012507,8.88719414684,28.8882483444,0.200553056751,-0.171059048405,0.819631231931,0.508647143932,[],[],[],-37.8173445,144.950598,442.3,-37.818954166666664,144.95123916666665,273.8,-35.84156328,143.1362385,63.2729524,-35.96631476,143.3707744,64.82851725,0.003368,0.018172,0.005005,4.894528,-7.448761,3.922688,0.200553,-0.171059,0.819631,0.508647,1616653375.5721588,-0.152203,0.453835,0.68401
1,-15547.7098878,-21530.3387027,334.458714419,9.65891518539,8.98726435146,29.212764912,0.200553056751,-0.171059048405,0.819631231931,0.508647143932,[],[],[],-37.8173445,144.950598,442.3,-37.818954166666664,144.95123916666665,273.8,-35.84156328,143.1362385,63.2729524,-35.96631476,143.3707744,64.82851725,0.003368,0.018172,0.005005,4.894528,-7.448761,3.922688,0.200553,-0.171059,0.819631,0.508647,1616653375.6011672,-0.152203,0.453835,0.68401
1,-15547.5156374,-21530.1579567,335.046214883,9.76613024571,9.08733455609,29.5372814795,0.200553056751,-0.171059048405,0.819631231931,0.508647143932,[],[],[],-37.8173445,144.950598,442.3,-37.818954166666664,144.95123916666665,273.8,-35.84156328,143.1362385,63.2729524,-35.96631476,143.3707744,64.82851725,0.003368,0.018172,0.005005,4.894528,-7.448761,3.922688,0.200553,-0.171059,0.819631,0.508647,1616653375.631209,-0.152203,0.453835,0.68401
1,-15547.3192426,-21529.9752093,335.640205678,9.87334530603,9.18740476071,29.861798047,0.200553056751,-0.171059048405,0.819631231931,0.508647143932,[],[],[],-37.8173445,144.950598,442.3,-37.818954166666664,144.95123916666665,273.8,-35.84156328,143.1362385,63.2729524,-35.96631476,143.3707744,64.82851725,0.003368,0.018172,0.005005,4.894528,-7.448761,3.922688,0.200553,-0.171059,0.819631,0.508647,1616653375.6631832,-0.152203,0.453835,0.68401
1,-15547.120708,-21529.7904661,336.240689874,9.98011751034,9.2869225212,30.1866215638,0.200636933115,-0.171263942907,0.819586726781,0.508616830447,[],[],[],-37.8173445,144.950598,442.3,-37.818954166666664,144.95123916666665,273.8,-35.84156328,143.1362385,63.2729524,-35.96631476,143.3707744,64.82851725,0.005595,-0.006342,-0.007044,4.891058,-7.419522,3.942146,0.200637,-0.171264,0.819587,0.508617,1616653375.695816,-0.149028,0.474013,0.689365
1,-15546.9200379,-21529.6037324,336.84767054,10.0868897146,9.38644028169,30.5114450806,0.200636933115,-0.171263942907,0.819586726781,0.508616830447,[],[],[],-37.8173445,144.950598,442.3,-37.818954166666664,144.95123916666665,273.8,-35.84156328,143.1362385,63.2729524,-35.96631476,143.3707744,64.82851725,0.005595,-0.006342,-0.007044,4.891058,-7.419522,3.942146,0.200637,-0.171264,0.819587,0.508617,1616653375.726227,-0.149028,0.474013,0.689365
1,-15546.7172324,-21529.4150085,337.461147677,10.193661919,9.48595804218,30.8362685974,0.200636933115,-0.171263942907,0.819586726781,0.508616830447,[],[],[],-37.8173445,144.950598,442.3,-37.818954166666664,144.95123916666665,273.8,-35.84156328,143.1362385,63.2729524,-35.96631476,143.3707744,64.82851725,0.005595,-0.006342,-0.007044,4.891058,-7.419522,3.942146,0.200637,-0.171264,0.819587,0.508617,1616653375.7576709,-0.149028,0.474013,0.689365
1,-15546.5122914,-21529.2242941,338.081121284,10.3004341233,9.58547580267,31.1610921142,0.200636933115,-0.171263942907,0.819586726781,0.508616830447,[],[],[],-37.8173445,144.950598,442.3,-37.818954166666664,144.95123916666665,273.8,-35.84156328,143.1362385,63.2729524,-35.96631476,143.3707744,64.82851725,0.005595,-0.006342,-0.007044,4.891058,-7.419522,3.942146,0.200637,-0.171264,0.819587,0.508617,1616653375.7856865,-0.149028,0.474013,0.689365
1,-15546.305215,-21529.0315894,338.707591362,10.4072063276,9.68499356316,31.485915631,0.200636933115,-0.171263942907,0.819586726781,0.508616830447,[],[],[],-37.8173445,144.950598,442.3,-37.818954166666664,144.95123916666665,273.8,-35.84156328,143.1362385,63.2729524,-35.96631476,143.3707744,64.82851725,0.005595,-0.006342,-0.007044,4.891058,-7.419522,3.942146,0.200637,-0.171264,0.819587,0.508617,1616653375.8165462,-0.149028,0.474013,0.689365
1,-15546.0960032,-21528.8368944,339.34055791,10.5139785319,9.78451132365,31.8107391478,0.200636933115,-0.171263942907,0.819586726781,0.508616830447,[],[],[],-37.8173445,144.950598,442.3,-37.818954166666664,144.95123916666665,273.8,-35.84156328,143.1362385,63.2729524,-35.96631476,143.3707744,64.82851725,0.005595,-0.006342,-0.007044,4.891058,-7.419522,3.942146,0.200637,-0.171264,0.819587,0.508617,1616653375.8566768,-0.149028,0.474013,0.689365
1,-15545.8846559,-21528.640209,339.980020928,10.6207507362,9.88402908414,32.1355626646,0.200636933115,-0.171263942907,0.819586726781,0.508616830447,[],[],[],-37.8173445,144.950598,442.3,-37.818954166666664,144.95123916666665,273.8,-35.84156328,143.1362385,63.2729524,-35.96631476,143.3707744,64.82851725,0.005595,-0.006342,-0.007044,4.891058,-7.419522,3.942146,0.200637,-0.171264,0.819587,0.508617,1616653375.8881586,-0.149028,0.474013,0.689365
1,-15545.6711719,-21528.4415247,340.625980304,10.7276453422,9.98439792889,32.4603749444,0.200604952187,-0.171228959188,0.819552804663,0.508695878755,[],[],[],-37.8173445,144.950598,442.3,-37.818954166666664,144.95123916666665,273.8,-35.84156328,143.1362385,63.2729524,-35.96631476,143.3707744,64.82851725,0.007007,-0.004198,-0.004417,4.921714,-7.442293,3.922339,0.200605,-0.171229,0.819553,0.508696,1616653375.921028,-0.141643,0.466144,0.685062
1,-15545.4555501,-21528.2408331,341.278435925,10.8345399482,10.0847667736,32.7851872242,0.200604952187,-0.171228959188,0.819552804663,0.508695878755,[],[],[],-37.8173445,144.950598,442.3,-37.818954166666664,144.95123916666665,273.8,-35.84156328,143.1362385,63.2729524,-35.96631476,143.3707744,64.82851725,0.007007,-0.004198,-0.004417,4.921714,-7.442293,3.922339,0.200605,-0.171229,0.819553,0.508696,1616653375.9506085,-0.141643,0.466144,0.685062
1,-15545.2377903,-21528.038134,341.937387793,10.9414345542,10.1851356184,33.1099995041,0.200604952187,-0.171228959188,0.819552804663,0.508695878755,[],[],[],-37.8173445,144.950598,442.3,-37.818954166666664,144.95123916666665,273.8,-35.84156328,143.1362385,63.2729524,-35.96631476,143.3707744,64.82851725,0.007007,-0.004198,-0.004417,4.921714,-7.442293,3.922339,0.200605,-0.171229,0.819553,0.508696,1616653375.9826734,-0.141643,0.466144,0.685062
1,-15545.0178927,-21527.8334276,342.602835906,11.0483291602,10.2855044631,33.4348117839,0.200604952187,-0.171228959188,0.819552804663,0.508695878755,[],[],[],-37.8173445,144.950598,442.3,-37.81895633333333,144.95123616666666,274.5,-35.84156328,143.1362385,63.2729524,-35.96631476,143.3707744,64.82851725,0.007007,-0.004198,-0.004417,4.921714,-7.442293,3.922339,0.200605,-0.171229,0.819553,0.508696,1616653376.010169,-0.141643,0.466144,0.685062
1,-15544.7958572,-21527.6267139,343.274780264,11.1552237662,10.3858733079,33.7596240638,0.200604952187,-0.171228959188,0.819552804663,0.508695878755,[],[],[],-37.8173445,144.950598,442.3,-37.81895633333333,144.95123616666666,274.5,-35.84156328,143.1362385,63.2729524,-35.96631476,143.3707744,64.82851725,0.007007,-0.004198,-0.004417,4.921714,-7.442293,3.922339,0.200605,-0.171229,0.819553,0.508696,1616653376.0514133,-0.141643,0.466144,0.685062
1,-15544.5716837,-21527.4179927,343.953220868,11.2621183722,10.4862421526,34.0844363436,0.200604952187,-0.171228959188,0.819552804663,0.508695878755,[],[],[],-37.8173445,144.950598,442.3,-37.81895633333333,144.95123616666666,274.5,-35.84156328,143.1362385,63.2729524,-35.96631476,143.3707744,64.82851725,0.007007,-0.004198,-0.004417,4.921714,-7.442293,3.922339,0.200605,-0.171229,0.819553,0.508696,1616653376.081467,-0.141643,0.466144,0.685062
1,-15544.3453664,-21527.2072674,344.638157083,11.3696132599,10.5862837863,34.4091851417,0.200646009718,-0.1713560083,0.819526039695,0.508680024638,[],[],[],-37.8173445,144.950598,442.3,-37.81895633333333,144.95123616666666,274.5,-35.84156328,143.1362385,63.2729524,-35.96631476,143.3707744,64.82851725,-0.000562,-0.002354,-0.017025,4.896105,-7.463044,3.929873,0.200646,-0.171356,0.819526,0.50868,1616653376.1096563,-0.149221,0.466421,0.684476
1,-15544.1168992,-21526.9945414,345.329588274,11.4771081475,10.68632542,34.7339339399,0.200646009718,-0.1713560083,0.819526039695,0.508680024638,[],[],[],-37.8173445,144.950598,442.3,-37.81895633333333,144.95123616666666,274.5,-35.84156328,143.1362385,63.2729524,-35.96631476,143.3707744,64.82851725,-0.000562,-0.002354,-0.017025,4.896105,-7.463044,3.929873,0.200646,-0.171356,0.819526,0.50868,1616653376.142871,-0.149221,0.466421,0.684476
1,-15543.8862821,-21526.7798144,346.027514441,11.5846030352,10.7863670537,35.058682738,0.200646009718,-0.1713560083,0.819526039695,0.508680024638,[],[],[],-37.8173445,144.950598,442.3,-37.81895633333333,144.95123616666666,274.5,-35.84156328,143.1362385,63.2729524,-35.96631476,143.3707744,64.82851725,-0.000562,-0.002354,-0.017025,4.896105,-7.463044,3.929873,0.200646,-0.171356,0.819526,0.50868,1616653376.174193,-0.149221,0.466421,0.684476
1,-15543.6535151,-21526.5630867,346.731935583,11.6920979229,10.8864086874,35.3834315362,0.200646009718,-0.1713560083,0.819526039695,0.508680024638,[],[],[],-37.8173445,144.950598,442.3,-37.81895633333333,144.95123616666666,274.5,-35.84156328,143.1362385,63.2729524,-35.96631476,143.3707744,64.82851725,-0.000562,-0.002354,-0.017025,4.896105,-7.463044,3.929873,0.200646,-0.171356,0.819526,0.50868,1616653376.203469,-0.149221,0.466421,0.684476
1,-15543.4185982,-21526.3443581,347.442851702,11.7995928106,10.9864503211,35.7081803343,0.200646009718,-0.1713560083,0.819526039695,0.508680024638,[],[],[],-37.8173445,144.950598,442.3,-37.81895633333333,144.95123616666666,274.5,-35.84156328,143.1362385,63.2729524,-35.96631476,143.3707744,64.82851725,-0.000562,-0.002354,-0.017025,4.896105,-7.463044,3.929873,0.200646,-0.171356,0.819526,0.50868,1616653376.2351344,-0.149221,0.466421,0.684476
1,-15543.1815314,-21526.1236287,348.160262797,11.9070876983,11.0864919548,36.0329291325,0.200646009718,-0.1713560083,0.819526039695,0.508680024638,[],[],[],-37.8173445,144.950598,442.3,-37.81895633333333,144.95123616666666,274.5,-35.84156328,143.1362385,63.2729524,-35.96631476,143.3707744,64.82851725,-0.000562,-0.002354,-0.017025,4.896105,-7.463044,3.929873,0.200646,-0.171356,0.819526,0.50868,1616653376.2630033,-0.149221,0.466421,0.684476
1,-15542.942315,-21525.9008987,348.884169886,12.0145525681,11.1865000439,36.3577798148,0.200612053619,-0.171164045748,0.819617219063,0.508611135939,[],[],[],-37.8173445,144.950598,442.3,-37.81895633333333,144.95123616666666,274.5,-35.84156328,143.1362385,63.2729524,-35.96631476,143.3707744,64.82851725,0.001402,0.013778,-0.007968,4.895903,-7.460722,3.938661,0.200612,-0.171164,0.819617,0.508611,1616653376.2938185,-0.143881,0.473825,0.685014
1,-15542.7009493,-21525.6761687,349.614573989,12.1220174379,11.2865081329,36.682630497,0.200612053619,-0.171164045748,0.819617219063,0.508611135939,[],[],[],-37.8173445,144.950598,442.3,-37.81895633333333,144.95123616666666,274.5,-35.84156328,143.1362385,63.2729524,-35.96631476,143.3707744,64.82851725,0.001402,0.013778,-0.007968,4.895903,-7.460722,3.938661,0.200612,-0.171164,0.819617,0.508611,1616653376.32962,-0.143881,0.473825,0.685014
1,-15542.4574343,-21525.4494384,350.351475106,12.2294823078,11.386516222,37.0074811793,0.200612053619,-0.171164045748,0.819617219063,0.508611135939,[],[],[],-37.8173445,144.950598,442.3,-37.81895633333333,144.95123616666666,274.5,-35.84156328,143.1362385,63.2729524,-35.96631476,143.3707744,64.82851725,0.001402,0.013778,-0.007968,4.895903,-7.460722,3.938661,0.200612,-0.171164,0.819617,0.508611,1616653376.3613045,-0.143881,0.473825,0.685014
1,-15542.21177,-21525.220708,351.094873236,12.3369471776,11.486524311,37.3323318616,0.200612053619,-0.171164045748,0.819617219063,0.508611135939,[],[],[],-37.8173445,144.950598,442.3,-37.81895633333333,144.95123616666666,274.5,-35.84156328,143.1362385,63.2729524,-35.96631476,143.3707744,64.82851725,0.001402,0.013778,-0.007968,4.895903,-7.460722,3.938661,0.200612,-0.171164,0.819617,0.508611,1616653376.3918188,-0.143881,0.473825,0.685014
1,-15541.9639564,-21524.9899774,351.844768381,12.4444120474,11.5865324001,37.6571825439,0.200612053619,-0.171164045748,0.819617219063,0.508611135939,[],[],[],-37.8173445,144.950598,442.3,-37.81895633333333,144.95123616666666,274.5,-35.84156328,143.1362385,63.2729524,-35.96631476,143.3707744,64.82851725,0.001402,0.013778,-0.007968,4.895903,-7.460722,3.938661,0.200612,-0.171164,0.819617,0.508611,1616653376.422297,-0.143881,0.473825,0.685014
1,-15541.7139935,-21524.7572467,352.601160538,12.5518769172,11.6865404891,37.9820332262,0.200612053619,-0.171164045748,0.819617219063,0.508611135939,[],[],[],-37.8173445,144.950598,442.3,-37.81895633333333,144.95123616666666,274.5,-35.84156328,143.1362385,63.2729524,-35.96631476,143.3707744,64.82851725,0.001402,0.013778,-0.007968,4.895903,-7.460722,3.938661,0.200612,-0.171164,0.819617,0.508611,1616653376.4520895,-0.143881,0.473825,0.685014
1,-15541.4618813,-21524.5225158,353.36404971,12.659341787,11.7865485782,38.3068839085,0.200612053619,-0.171164045748,0.819617219063,0.508611135939,[],[],[],-37.8173445,144.950598,442.3,-37.81895633333333,144.95123616666666,274.5,-35.84156328,143.1362385,63.2729524,-35.96631476,143.3707744,64.82851725,0.001402,0.013778,-0.007968,4.895903,-7.460722,3.938661,0.200612,-0.171164,0.819617,0.508611,1616653376.4850094,-0.143881,0.473825,0.685014
1,-15541.2076198,-21524.285785,354.133433521,12.7668107162,11.8865355993,38.6314972836,0.200651866518,-0.171091886183,0.819515454826,0.508783661537,[],[],[],-37.8173445,144.950598,442.3,-37.81895633333333,144.95123616666666,274.5,-35.84156328,143.1362385,63.2729524,-35.96631476,143.3707744,64.82851725,0.00819,0.005998,-0.011903,4.892143,-7.457238,3.929525,0.200652,-0.171092,0.819516,0.508784,1616653376.5180118,-0.144131,0.471462,0.687459
1,-15540.9512089,-21524.0470544,354.909309601,12.8742796453,11.9865226205,38.9561106588,0.200651866518,-0.171091886183,0.819515454826,0.508783661537,[],[],[],-37.8173445,144.950598,442.3,-37.81895633333333,144.95123616666666,274.5,-35.84156328,143.1362385,63.2729524,-35.96631476,143.3707744,64.82851725,0.00819,0.005998,-0.011903,4.892143,-7.457238,3.929525,0.200652,-0.171092,0.819516,0.508784,1616653376.5454266,-0.144131,0.471462,0.687459
1,-15540.6926486,-21523.8063241,355.691677948,12.9817485744,12.0865096416,39.280724034,0.200651866518,-0.171091886183,0.819515454826,0.508783661537,[],[],[],-37.817342833333335,144.95057916666667,454.2,-37.81895633333333,144.95123616666666,274.5,-35.84156328,143.1362385,63.2729524,-35.96631476,143.3707744,64.82851725,0.00819,0.005998,-0.011903,4.892143,-7.457238,3.929525,0.200652,-0.171092,0.819516,0.508784,1616653376.5747316,-0.144131,0.471462,0.687459
1,-15540.4319389,-21523.563594,356.480538562,13.0892175035,12.1864966628,39.6053374092,0.200651866518,-0.171091886183,0.819515454826,0.508783661537,[],[],[],-37.817342833333335,144.95057916666667,454.2,-37.81895633333333,144.95123616666666,274.5,-35.84156328,143.1362385,63.2729524,-35.96631476,143.3707744,64.82851725,0.00819,0.005998,-0.011903,4.892143,-7.457238,3.929525,0.200652,-0.171092,0.819516,0.508784,1616653376.602332,-0.144131,0.471462,0.687459
1,-15540.1690799,-21523.3188642,357.275891444,13.1966864326,12.286483684,39.9299507843,0.200651866518,-0.171091886183,0.819515454826,0.508783661537,[],[],[],-37.817342833333335,144.95057916666667,454.2,-37.81895633333333,144.95123616666666,274.5,-35.84156328,143.1362385,63.2729524,-35.96631476,143.3707744,64.82851725,0.00819,0.005998,-0.011903,4.892143,-7.457238,3.929525,0.200652,-0.171092,0.819516,0.508784,1616653376.6299498,-0.144131,0.471462,0.687459
1,-15539.9040715,-21523.0721347,358.077736594,13.3041553617,12.3864707051,40.2545641595,0.200651866518,-0.171091886183,0.819515454826,0.508783661537,[],[],[],-37.817342833333335,144.95057916666667,454.2,-37.81895633333333,144.95123616666666,274.5,-35.84156328,143.1362385,63.2729524,-35.96631476,143.3707744,64.82851725,0.00819,0.005998,-0.011903,4.892143,-7.457238,3.929525,0.200652,-0.171092,0.819516,0.508784,1616653376.658064,-0.144131,0.471462,0.687459
1,-15539.6369137,-21522.8234054,358.886074011,13.4116242909,12.4864577263,40.5791775347,0.200651866518,-0.171091886183,0.819515454826,0.508783661537,[],[],[],-37.817342833333335,144.95057916666667,454.2,-37.81895633333333,144.95123616666666,274.5,-35.84156328,143.1362385,63.2729524,-35.96631476,143.3707744,64.82851725,0.00819,0.005998,-0.011903,4.892143,-7.457238,3.929525,0.200652,-0.171092,0.819516,0.508784,1616653376.6895745,-0.144131,0.471462,0.687459
1,-15539.3676079,-21522.5726775,359.700906492,13.5189538281,12.5863320764,40.9040706277,0.200725123092,-0.171063104902,0.819520502559,0.508756311987,[],[],[],-37.817342833333335,144.95057916666667,454.2,-37.81895633333333,144.95123616666666,274.5,-35.84156328,143.1362385,63.2729524,-35.96631476,143.3707744,64.82851725,-0.002323,0.012036,-0.013494,4.897954,-7.449162,3.943738,0.200725,-0.171063,0.81952,0.508756,1616653376.7181556,-0.143288,0.486299,0.685129
1,-15539.0961555,-21522.3199521,360.522236836,13.6262833654,12.6862064266,41.2289637207,0.200725123092,-0.171063104902,0.819520502559,0.508756311987,[],[],[],-37.817342833333335,144.95057916666667,454.2,-37.81895633333333,144.95123616666666,274.5,-35.84156328,143.1362385,63.2729524,-35.96631476,143.3707744,64.82851725,-0.002323,0.012036,-0.013494,4.897954,-7.449162,3.943738,0.200725,-0.171063,0.81952,0.508756,1616653376.7465894,-0.143288,0.486299,0.685129
1,-15538.8225566,-21522.0652292,361.350065041,13.7336129027,12.7860807767,41.5538568137,0.200725123092,-0.171063104902,0.819520502559,0.508756311987,[],[],[],-37.817342833333335,144.95057916666667,454.2,-37.81895633333333,144.95123616666666,274.5,-35.84156328,143.1362385,63.2729524,-35.96631476,143.3707744,64.82851725,-0.002323,0.012036,-0.013494,4.897954,-7.449162,3.943738,0.200725,-0.171063,0.81952,0.508756,1616653376.777773,-0.143288,0.486299,0.685129
1,-15538.546811,-21521.8085089,362.184391108,13.8409424399,12.8859551269,41.8787499067,0.200725123092,-0.171063104902,0.819520502559,0.508756311987,[],[],[],-37.817342833333335,144.95057916666667,454.2,-37.81895633333333,144.95123616666666,274.5,-35.84156328,143.1362385,63.2729524,-35.96631476,143.3707744,64.82851725,-0.002323,0.012036,-0.013494,4.897954,-7.449162,3.943738,0.200725,-0.171063,0.81952,0.508756,1616653376.8068075,-0.143288,0.486299,0.685129
1,-15538.2689189,-21521.549791,363.025215037,13.9482719772,12.985829477,42.2036429997,0.200725123092,-0.171063104902,0.819520502559,0.508756311987,[],[],[],-37.817342833333335,144.95057916666667,454.2,-37.81895633333333,144.95123616666666,274.5,-35.84156328,143.1362385,63.2729524,-35.96631476,143.3707744,64.82851725,-0.002323,0.012036,-0.013494,4.897954,-7.449162,3.943738,0.200725,-0.171063,0.81952,0.508756,1616653376.8371437,-0.143288,0.486299,0.685129
1,-15537.9888801,-21521.2890757,363.872536828,14.0556015145,13.0857038271,42.5285360927,0.200725123092,-0.171063104902,0.819520502559,0.508756311987,[],[],[],-37.817342833333335,144.95057916666667,454.2,-37.81895633333333,144.95123616666666,274.5,-35.84156328,143.1362385,63.2729524,-35.96631476,143.3707744,64.82851725,-0.002323,0.012036,-0.013494,4.897954,-7.449162,3.943738,0.200725,-0.171063,0.81952,0.508756,1616653376.8653574,-0.143288,0.486299,0.685129
1,-15537.7066948,-21521.0263629,364.726356481,14.1629310518,13.1855781773,42.8534291857,0.200725123092,-0.171063104902,0.819520502559,0.508756311987,[],[],[],-37.817342833333335,144.95057916666667,454.2,-37.81895633333333,144.95123616666666,274.5,-35.84156328,143.1362385,63.2729524,-35.96631476,143.3707744,64.82851725,-0.002323,0.012036,-0.013494,4.897954,-7.449162,3.943738,0.200725,-0.171063,0.81952,0.508756,1616653376.893646,-0.143288,0.486299,0.685129
